[{"name":"강원도","depth":1,"lat":37.82004,"lng":128.259344,"zoom":10,"items":[{"name":"강릉시","depth":2,"lat":37.7521667480469,"lng":128.875839233398,"zoom":14,"items":[{"name":"강남동","depth":3,"lat":37.744239807128906,"lng":128.90556335449219,"zoom":15},{"name":"강동면","depth":3,"lat":37.728069305419922,"lng":128.95420837402344,"zoom":15},{"name":"강문동","depth":3,"lat":37.789649963378906,"lng":128.92123413085937,"zoom":15},{"name":"견소동","depth":3,"lat":37.773990631103516,"lng":128.9405517578125,"zoom":15},{"name":"경포동","depth":3,"lat":37.783832550048828,"lng":128.88052368164062,"zoom":15},{"name":"교1동","depth":3,"lat":37.765571594238281,"lng":128.87448120117187,"zoom":15},{"name":"교2동","depth":3,"lat":37.7679443359375,"lng":128.89239501953125,"zoom":15},{"name":"교동","depth":3,"lat":37.765571594238281,"lng":128.87448120117187,"zoom":15},{"name":"구정면","depth":3,"lat":37.7183723449707,"lng":128.88005065917969,"zoom":15},{"name":"금학동","depth":3,"lat":37.752994537353516,"lng":128.89541625976562,"zoom":15},{"name":"난곡동","depth":3,"lat":37.789794921875,"lng":128.87684631347656,"zoom":15},{"name":"남문동","depth":3,"lat":37.748844146728516,"lng":128.8870849609375,"zoom":15},{"name":"남항진동","depth":3,"lat":37.75885009765625,"lng":128.95556640625,"zoom":15},{"name":"내곡동","depth":3,"lat":37.739101409912109,"lng":128.88070678710937,"zoom":15},{"name":"노암동","depth":3,"lat":37.745197296142578,"lng":128.90042114257812,"zoom":15},{"name":"담산동","depth":3,"lat":37.721675872802734,"lng":128.90144348144531,"zoom":15},{"name":"대전동","depth":3,"lat":37.794342041015625,"lng":128.85476684570312,"zoom":15},{"name":"두산동","depth":3,"lat":37.763469696044922,"lng":128.92893981933594,"zoom":15},{"name":"명주동","depth":3,"lat":37.7504768371582,"lng":128.89067077636719,"zoom":15},{"name":"박월동","depth":3,"lat":37.724403381347656,"lng":128.91157531738281,"zoom":15},{"name":"병산동","depth":3,"lat":37.766544342041016,"lng":128.94294738769531,"zoom":15},{"name":"사천면","depth":3,"lat":37.823566436767578,"lng":128.84872436523437,"zoom":15},{"name":"성남동","depth":3,"lat":37.7518196105957,"lng":128.89804077148437,"zoom":15},{"name":"성내동","depth":3,"lat":37.752597808837891,"lng":128.89320373535156,"zoom":15},{"name":"성덕동","depth":3,"lat":37.763500213623047,"lng":128.9136962890625,"zoom":15},{"name":"성산면","depth":3,"lat":37.718696594238281,"lng":128.83204650878906,"zoom":15},{"name":"송정동","depth":3,"lat":37.7745246887207,"lng":128.92753601074219,"zoom":15},{"name":"신석동","depth":3,"lat":37.728797912597656,"lng":128.9210205078125,"zoom":15},{"name":"안현동","depth":3,"lat":37.811103820800781,"lng":128.89364624023437,"zoom":15},{"name":"연곡면","depth":3,"lat":37.860198974609375,"lng":128.83692932128906,"zoom":15},{"name":"옥계면","depth":3,"lat":37.612667083740234,"lng":129.03790283203125,"zoom":15},{"name":"옥천동","depth":3,"lat":37.760215759277344,"lng":128.90318298339844,"zoom":15},{"name":"왕산면","depth":3,"lat":37.672679901123047,"lng":128.83793640136719,"zoom":15},{"name":"용강동","depth":3,"lat":37.752265930175781,"lng":128.89039611816406,"zoom":15},{"name":"운산동","depth":3,"lat":37.726768493652344,"lng":128.933349609375,"zoom":15},{"name":"운정동","depth":3,"lat":37.787891387939453,"lng":128.8955078125,"zoom":15},{"name":"월호평동","depth":3,"lat":37.743812561035156,"lng":128.94085693359375,"zoom":15},{"name":"유산동","depth":3,"lat":37.737983703613281,"lng":128.91569519042969,"zoom":15},{"name":"유천동","depth":3,"lat":37.768424987792969,"lng":128.85609436035156,"zoom":15},{"name":"임당동","depth":3,"lat":37.756290435791016,"lng":128.89443969726562,"zoom":15},{"name":"입암동","depth":3,"lat":37.754386901855469,"lng":128.915283203125,"zoom":15},{"name":"장현동","depth":3,"lat":37.7290153503418,"lng":128.89445495605469,"zoom":15},{"name":"저동","depth":3,"lat":37.799087524414063,"lng":128.89398193359375,"zoom":15},{"name":"주문진읍","depth":3,"lat":37.893959045410156,"lng":128.82313537597656,"zoom":15},{"name":"죽헌동","depth":3,"lat":37.780757904052734,"lng":128.85523986816406,"zoom":15},{"name":"중앙동","depth":3,"lat":37.754661560058594,"lng":128.89501953125,"zoom":15},{"name":"지변동","depth":3,"lat":37.774818420410156,"lng":128.86994934082031,"zoom":15},{"name":"청량동","depth":3,"lat":37.744415283203125,"lng":128.92855834960937,"zoom":15},{"name":"초당동","depth":3,"lat":37.791889190673828,"lng":128.91593933105469,"zoom":15},{"name":"포남1동","depth":3,"lat":37.767917633056641,"lng":128.90815734863281,"zoom":15},{"name":"포남2동","depth":3,"lat":37.772823333740234,"lng":128.91337585449219,"zoom":15},{"name":"포남동","depth":3,"lat":37.767917633056641,"lng":128.90815734863281,"zoom":15},{"name":"학동","depth":3,"lat":37.7551383972168,"lng":128.93177795410156,"zoom":15},{"name":"홍제동","depth":3,"lat":37.748317718505859,"lng":128.88365173339844,"zoom":15},{"name":"회산동","depth":3,"lat":37.736431121826172,"lng":128.86314392089844,"zoom":15}]},{"name":"고성군","depth":2,"lat":38.380615234375,"lng":128.467864990234,"zoom":14,"items":[{"name":"간성읍","depth":3,"lat":38.378349304199219,"lng":128.46693420410156,"zoom":15},{"name":"거진읍","depth":3,"lat":38.452369689941406,"lng":128.45957946777344,"zoom":15},{"name":"수동면","depth":3,"lat":38.400016784667969,"lng":128.30229187011719,"zoom":15},{"name":"죽왕면","depth":3,"lat":38.328826904296875,"lng":128.52552795410156,"zoom":15},{"name":"토성면","depth":3,"lat":38.257209777832031,"lng":128.55865478515625,"zoom":15},{"name":"현내면","depth":3,"lat":38.494304656982422,"lng":128.42744445800781,"zoom":15}]},{"name":"동해시","depth":2,"lat":37.5247573852539,"lng":129.1142578125,"zoom":14,"items":[{"name":"괴란동","depth":3,"lat":37.573112487792969,"lng":129.06193542480469,"zoom":15},{"name":"구미동","depth":3,"lat":37.478740692138672,"lng":129.130859375,"zoom":15},{"name":"구호동","depth":3,"lat":37.482154846191406,"lng":129.145263671875,"zoom":15},{"name":"귀운동","depth":3,"lat":37.470191955566406,"lng":129.08897399902344,"zoom":15},{"name":"나안동","depth":3,"lat":37.4853401184082,"lng":129.11357116699219,"zoom":15},{"name":"내동","depth":3,"lat":37.459293365478516,"lng":129.13238525390625,"zoom":15},{"name":"단봉동","depth":3,"lat":37.470073699951172,"lng":129.11795043945312,"zoom":15},{"name":"달방동","depth":3,"lat":37.50048828125,"lng":129.01814270019531,"zoom":15},{"name":"대구동","depth":3,"lat":37.468521118164063,"lng":129.1378173828125,"zoom":15},{"name":"대진동","depth":3,"lat":37.574501037597656,"lng":129.11042785644531,"zoom":15},{"name":"동호동","depth":3,"lat":37.5457878112793,"lng":129.10026550292969,"zoom":15},{"name":"동회동","depth":3,"lat":37.492549896240234,"lng":129.09829711914063,"zoom":15},{"name":"만우동","depth":3,"lat":37.547866821289063,"lng":129.0592041015625,"zoom":15},{"name":"망상동","depth":3,"lat":37.591842651367187,"lng":129.08258056640625,"zoom":15},{"name":"묵호동","depth":3,"lat":37.558670043945313,"lng":129.11427307128906,"zoom":15},{"name":"묵호진동","depth":3,"lat":37.555419921875,"lng":129.114990234375,"zoom":15},{"name":"발한동","depth":3,"lat":37.548458099365234,"lng":129.10792541503906,"zoom":15},{"name":"부곡동","depth":3,"lat":37.536811828613281,"lng":129.10491943359375,"zoom":15},{"name":"북삼동","depth":3,"lat":37.489410400390625,"lng":129.10762023925781,"zoom":15},{"name":"북평동","depth":3,"lat":37.48382568359375,"lng":129.12519836425781,"zoom":15},{"name":"비천동","depth":3,"lat":37.525413513183594,"lng":129.04756164550781,"zoom":15},{"name":"삼화동","depth":3,"lat":37.459209442138672,"lng":129.00898742675781,"zoom":15},{"name":"송정동","depth":3,"lat":37.499675750732422,"lng":129.12843322753906,"zoom":15},{"name":"쇄운동","depth":3,"lat":37.475257873535156,"lng":129.07455444335938,"zoom":15},{"name":"신흥동","depth":3,"lat":37.520347595214844,"lng":128.994384765625,"zoom":15},{"name":"심곡동","depth":3,"lat":37.581401824951172,"lng":129.07685852050781,"zoom":15},{"name":"어달동","depth":3,"lat":37.564956665039062,"lng":129.112548828125,"zoom":15},{"name":"용정동","depth":3,"lat":37.505649566650391,"lng":129.11837768554687,"zoom":15},{"name":"이기동","depth":3,"lat":37.4837760925293,"lng":129.02192687988281,"zoom":15},{"name":"이도동","depth":3,"lat":37.479927062988281,"lng":129.10406494140625,"zoom":15},{"name":"이로동","depth":3,"lat":37.497108459472656,"lng":129.06033325195312,"zoom":15},{"name":"지가동","depth":3,"lat":37.468433380126953,"lng":129.10557556152344,"zoom":15},{"name":"지흥동","depth":3,"lat":37.506298065185547,"lng":129.08250427246094,"zoom":15},{"name":"천곡동","depth":3,"lat":37.522884368896484,"lng":129.11614990234375,"zoom":15},{"name":"초구동","depth":3,"lat":37.571693420410156,"lng":129.09315490722656,"zoom":15},{"name":"추암동","depth":3,"lat":37.47064208984375,"lng":129.14999389648438,"zoom":15},{"name":"평릉동","depth":3,"lat":37.532600402832031,"lng":129.09732055664062,"zoom":15},{"name":"호현동","depth":3,"lat":37.463874816894531,"lng":129.12008666992187,"zoom":15},{"name":"효가동","depth":3,"lat":37.496868133544922,"lng":129.10971069335938,"zoom":15}]},{"name":"삼척시","depth":2,"lat":37.4500198364258,"lng":129.165130615234,"zoom":14,"items":[{"name":"가곡면","depth":3,"lat":37.149761199951172,"lng":129.2052001953125,"zoom":15},{"name":"갈천동","depth":3,"lat":37.465618133544922,"lng":129.16192626953125,"zoom":15},{"name":"건지동","depth":3,"lat":37.432121276855469,"lng":129.14828491210937,"zoom":15},{"name":"교동","depth":3,"lat":37.447921752929688,"lng":129.16461181640625,"zoom":15},{"name":"근덕면","depth":3,"lat":37.379276275634766,"lng":129.225830078125,"zoom":15},{"name":"근산동","depth":3,"lat":37.419471740722656,"lng":129.14500427246094,"zoom":15},{"name":"남양동","depth":3,"lat":37.442584991455078,"lng":129.16838073730469,"zoom":15},{"name":"노곡면","depth":3,"lat":37.347980499267578,"lng":129.16436767578125,"zoom":15},{"name":"당저동","depth":3,"lat":37.446964263916016,"lng":129.16041564941406,"zoom":15},{"name":"도경동","depth":3,"lat":37.453044891357422,"lng":129.0919189453125,"zoom":15},{"name":"도계읍","depth":3,"lat":37.236408233642578,"lng":129.04513549804687,"zoom":15},{"name":"등봉동","depth":3,"lat":37.453407287597656,"lng":129.12005615234375,"zoom":15},{"name":"마달동","depth":3,"lat":37.450859069824219,"lng":129.15496826171875,"zoom":15},{"name":"마평동","depth":3,"lat":37.429164886474609,"lng":129.13359069824219,"zoom":15},{"name":"미로면","depth":3,"lat":37.417583465576172,"lng":129.11247253417969,"zoom":15},{"name":"사직동","depth":3,"lat":37.427635192871094,"lng":129.17147827148437,"zoom":15},{"name":"성남동","depth":3,"lat":37.433406829833984,"lng":129.15596008300781,"zoom":15},{"name":"성내동","depth":3,"lat":37.442020416259766,"lng":129.16123962402344,"zoom":15},{"name":"성북동","depth":3,"lat":37.443946838378906,"lng":129.15657043457031,"zoom":15},{"name":"신기면","depth":3,"lat":37.349712371826172,"lng":129.08308410644531,"zoom":15},{"name":"오분동","depth":3,"lat":37.425933837890625,"lng":129.18612670898437,"zoom":15},{"name":"오사동","depth":3,"lat":37.435268402099609,"lng":129.14134216308594,"zoom":15},{"name":"우지동","depth":3,"lat":37.456253051757813,"lng":129.14495849609375,"zoom":15},{"name":"원당동","depth":3,"lat":37.4448356628418,"lng":129.14859008789062,"zoom":15},{"name":"원덕읍","depth":3,"lat":37.176460266113281,"lng":129.335693359375,"zoom":15},{"name":"읍상동","depth":3,"lat":37.439373016357422,"lng":129.16168212890625,"zoom":15},{"name":"읍중동","depth":3,"lat":37.441341400146484,"lng":129.1630859375,"zoom":15},{"name":"자원동","depth":3,"lat":37.442096710205078,"lng":129.14073181152344,"zoom":15},{"name":"적노동","depth":3,"lat":37.414787292480469,"lng":129.17564392089844,"zoom":15},{"name":"정라동","depth":3,"lat":37.436058044433594,"lng":129.18458557128906,"zoom":15},{"name":"정상동","depth":3,"lat":37.439182281494141,"lng":129.17890930175781,"zoom":15},{"name":"정하동","depth":3,"lat":37.442462921142578,"lng":129.18959045410156,"zoom":15},{"name":"조비동","depth":3,"lat":37.401359558105469,"lng":129.15522766113281,"zoom":15},{"name":"증산동","depth":3,"lat":37.471759796142578,"lng":129.15713500976562,"zoom":15},{"name":"평전동","depth":3,"lat":37.449356079101563,"lng":129.13154602050781,"zoom":15},{"name":"하장면","depth":3,"lat":37.349143981933594,"lng":128.94319152832031,"zoom":15}]},{"name":"속초시","depth":2,"lat":38.2071647644043,"lng":128.591842651367,"zoom":14,"items":[{"name":"교동","depth":3,"lat":38.201896667480469,"lng":128.57389831542969,"zoom":15},{"name":"금호동","depth":3,"lat":38.2116584777832,"lng":128.57339477539062,"zoom":15},{"name":"노학동","depth":3,"lat":38.190601348876953,"lng":128.52986145019531,"zoom":15},{"name":"대포동","depth":3,"lat":38.174259185791016,"lng":128.59901428222656,"zoom":15},{"name":"도문동","depth":3,"lat":38.167625427246094,"lng":128.57864379882813,"zoom":15},{"name":"동명동","depth":3,"lat":38.212715148925781,"lng":128.59565734863281,"zoom":15},{"name":"설악동","depth":3,"lat":38.166461944580078,"lng":128.46781921386719,"zoom":15},{"name":"영랑동","depth":3,"lat":38.215789794921875,"lng":128.59257507324219,"zoom":15},{"name":"장사동","depth":3,"lat":38.215000152587891,"lng":128.56106567382812,"zoom":15},{"name":"조양동","depth":3,"lat":38.187652587890625,"lng":128.59085083007812,"zoom":15},{"name":"중앙동","depth":3,"lat":38.206371307373047,"lng":128.58918762207031,"zoom":15},{"name":"청학동","depth":3,"lat":38.202655792236328,"lng":128.58444213867187,"zoom":15},{"name":"청호동","depth":3,"lat":38.1979866027832,"lng":128.59550476074219,"zoom":15}]},{"name":"양구군","depth":2,"lat":38.1099891662598,"lng":127.98999786377,"zoom":14,"items":[{"name":"남면","depth":3,"lat":38.108478546142578,"lng":128.03457641601562,"zoom":15},{"name":"동면","depth":3,"lat":38.202835083007813,"lng":128.04244995117187,"zoom":15},{"name":"방산면","depth":3,"lat":38.209819793701172,"lng":127.94870758056641,"zoom":15},{"name":"양구읍","depth":3,"lat":38.108001708984375,"lng":127.99050140380859,"zoom":15},{"name":"해안면","depth":3,"lat":38.284927368164062,"lng":128.13677978515625,"zoom":15}]},{"name":"양양군","depth":2,"lat":38.0754852294922,"lng":128.619155883789,"zoom":14,"items":[{"name":"강현면","depth":3,"lat":38.149986267089844,"lng":128.60755920410156,"zoom":15},{"name":"서면","depth":3,"lat":38.0715217590332,"lng":128.58528137207031,"zoom":15},{"name":"손양면","depth":3,"lat":38.060577392578125,"lng":128.64093017578125,"zoom":15},{"name":"양양읍","depth":3,"lat":38.0806770324707,"lng":128.62394714355469,"zoom":15},{"name":"현남면","depth":3,"lat":37.969245910644531,"lng":128.759521484375,"zoom":15},{"name":"현북면","depth":3,"lat":38.01904296875,"lng":128.72305297851562,"zoom":15}]},{"name":"영월군","depth":2,"lat":37.1837692260742,"lng":128.461853027344,"zoom":14,"items":[{"name":"김삿갓면","depth":3,"lat":37.125938415527344,"lng":128.56973266601562,"zoom":15},{"name":"남면","depth":3,"lat":37.186592102050781,"lng":128.40446472167969,"zoom":15},{"name":"북면","depth":3,"lat":37.2545051574707,"lng":128.4552001953125,"zoom":15},{"name":"상동읍","depth":3,"lat":37.127025604248047,"lng":128.82691955566406,"zoom":15},{"name":"수주면","depth":3,"lat":37.288291931152344,"lng":128.26889038085937,"zoom":15},{"name":"영월읍","depth":3,"lat":37.187442779541016,"lng":128.466064453125,"zoom":15},{"name":"주천면","depth":3,"lat":37.272193908691406,"lng":128.26893615722656,"zoom":15},{"name":"중동면","depth":3,"lat":37.145217895507813,"lng":128.6805419921875,"zoom":15},{"name":"한반도면","depth":3,"lat":37.2368049621582,"lng":128.32838439941406,"zoom":15}]},{"name":"원주시","depth":2,"lat":37.3418083190918,"lng":127.919578552246,"zoom":14,"items":[{"name":"가현동","depth":3,"lat":37.382965087890625,"lng":127.92359924316406,"zoom":15},{"name":"개운동","depth":3,"lat":37.340236663818359,"lng":127.95572662353516,"zoom":15},{"name":"관설동","depth":3,"lat":37.304901123046875,"lng":127.99801635742187,"zoom":15},{"name":"귀래면","depth":3,"lat":37.170040130615234,"lng":127.88482666015625,"zoom":15},{"name":"단계동","depth":3,"lat":37.352588653564453,"lng":127.9344482421875,"zoom":15},{"name":"단구동","depth":3,"lat":37.32611083984375,"lng":127.96037292480469,"zoom":15},{"name":"명륜1동","depth":3,"lat":37.341236114501953,"lng":127.95325469970703,"zoom":15},{"name":"명륜2동","depth":3,"lat":37.331611633300781,"lng":127.94392395019531,"zoom":15},{"name":"명륜동","depth":3,"lat":37.341236114501953,"lng":127.95325469970703,"zoom":15},{"name":"무실동","depth":3,"lat":37.337432861328125,"lng":127.92645263671875,"zoom":15},{"name":"문막읍","depth":3,"lat":37.312629699707031,"lng":127.81731414794922,"zoom":15},{"name":"반곡관설동","depth":3,"lat":37.318576812744141,"lng":127.97138977050781,"zoom":15},{"name":"반곡동","depth":3,"lat":37.323947906494141,"lng":127.98960113525391,"zoom":15},{"name":"봉산동","depth":3,"lat":37.347541809082031,"lng":127.95693969726562,"zoom":15},{"name":"부론면","depth":3,"lat":37.207603454589844,"lng":127.75050354003906,"zoom":15},{"name":"소초면","depth":3,"lat":37.417961120605469,"lng":128.00239562988281,"zoom":15},{"name":"신림면","depth":3,"lat":37.230754852294922,"lng":128.0794677734375,"zoom":15},{"name":"우산동","depth":3,"lat":37.371498107910156,"lng":127.94010162353516,"zoom":15},{"name":"원동","depth":3,"lat":37.343772888183594,"lng":127.94697570800781,"zoom":15},{"name":"원인동","depth":3,"lat":37.345661163330078,"lng":127.94680786132812,"zoom":15},{"name":"인동","depth":3,"lat":37.345954895019531,"lng":127.95462036132812,"zoom":15},{"name":"일산동","depth":3,"lat":37.349658966064453,"lng":127.94213104248047,"zoom":15},{"name":"중앙동","depth":3,"lat":37.349773406982422,"lng":127.95053863525391,"zoom":15},{"name":"지정면","depth":3,"lat":37.362148284912109,"lng":127.84025573730469,"zoom":15},{"name":"태장1동","depth":3,"lat":37.355232238769531,"lng":127.95520782470703,"zoom":15},{"name":"태장2동","depth":3,"lat":37.382465362548828,"lng":127.95204925537109,"zoom":15},{"name":"태장동","depth":3,"lat":37.355232238769531,"lng":127.95520782470703,"zoom":15},{"name":"판부면","depth":3,"lat":37.287567138671875,"lng":127.98905181884766,"zoom":15},{"name":"평원동","depth":3,"lat":37.350692749023438,"lng":127.95274353027344,"zoom":15},{"name":"학성동","depth":3,"lat":37.353549957275391,"lng":127.94413757324219,"zoom":15},{"name":"행구동","depth":3,"lat":37.342670440673828,"lng":127.98382568359375,"zoom":15},{"name":"호저면","depth":3,"lat":37.410663604736328,"lng":127.92560577392578,"zoom":15},{"name":"흥업면","depth":3,"lat":37.302909851074219,"lng":127.92136383056641,"zoom":15}]},{"name":"인제군","depth":2,"lat":38.0697288513184,"lng":128.170349121094,"zoom":14,"items":[{"name":"기린면","depth":3,"lat":37.955589294433594,"lng":128.31965637207031,"zoom":15},{"name":"남면","depth":3,"lat":37.965896606445313,"lng":128.08332824707031,"zoom":15},{"name":"북면","depth":3,"lat":38.124626159667969,"lng":128.20428466796875,"zoom":15},{"name":"상남면","depth":3,"lat":37.874080657958984,"lng":128.25996398925781,"zoom":15},{"name":"서화면","depth":3,"lat":38.218360900878906,"lng":128.20848083496094,"zoom":15},{"name":"인제읍","depth":3,"lat":38.070419311523438,"lng":128.17222595214844,"zoom":15}]},{"name":"정선군","depth":2,"lat":37.3806076049805,"lng":128.660873413086,"zoom":14,"items":[{"name":"고한읍","depth":3,"lat":37.204238891601563,"lng":128.85171508789063,"zoom":15},{"name":"남면","depth":3,"lat":37.268825531005859,"lng":128.74061584472656,"zoom":15},{"name":"북평면","depth":3,"lat":37.448902130126953,"lng":128.67048645019531,"zoom":15},{"name":"사북읍","depth":3,"lat":37.227764129638672,"lng":128.82174682617187,"zoom":15},{"name":"신동읍","depth":3,"lat":37.212196350097656,"lng":128.64213562011719,"zoom":15},{"name":"여량면","depth":3,"lat":37.47064208984375,"lng":128.72056579589844,"zoom":15},{"name":"임계면","depth":3,"lat":37.49481201171875,"lng":128.85205078125,"zoom":15},{"name":"정선읍","depth":3,"lat":37.379768371582031,"lng":128.66166687011719,"zoom":15},{"name":"화암면","depth":3,"lat":37.340396881103516,"lng":128.78791809082031,"zoom":15}]},{"name":"철원군","depth":2,"lat":38.1466827392578,"lng":127.313064575195,"zoom":14,"items":[{"name":"갈말읍","depth":3,"lat":38.147781372070313,"lng":127.30792999267578,"zoom":15},{"name":"근남면","depth":3,"lat":38.236679077148438,"lng":127.47112274169922,"zoom":15},{"name":"근동면","depth":3,"lat":38.303977966308594,"lng":127.55329895019531,"zoom":15},{"name":"근북면","depth":3,"lat":38.310443878173828,"lng":127.40264892578125,"zoom":15},{"name":"김화읍","depth":3,"lat":38.249404907226562,"lng":127.4212646484375,"zoom":15},{"name":"동송읍","depth":3,"lat":38.2070198059082,"lng":127.20873260498047,"zoom":15},{"name":"서면","depth":3,"lat":38.164787292480469,"lng":127.41572570800781,"zoom":15},{"name":"원남면","depth":3,"lat":38.302436828613281,"lng":127.66973876953125,"zoom":15},{"name":"원동면","depth":3,"lat":38.317787170410156,"lng":127.69763946533203,"zoom":15},{"name":"임남면","depth":3,"lat":38.304840087890625,"lng":127.85012054443359,"zoom":15},{"name":"철원읍","depth":3,"lat":38.212554931640625,"lng":127.21213531494141,"zoom":15}]},{"name":"춘천시","depth":2,"lat":37.8813133239746,"lng":127.73014831543,"zoom":14,"items":[{"name":"강남동","depth":3,"lat":37.865261077880859,"lng":127.72024536132812,"zoom":15},{"name":"교동","depth":3,"lat":37.880645751953125,"lng":127.73619079589844,"zoom":15},{"name":"근화동","depth":3,"lat":37.880710601806641,"lng":127.71239471435547,"zoom":15},{"name":"낙원동","depth":3,"lat":37.879722595214844,"lng":127.72454833984375,"zoom":15},{"name":"남면","depth":3,"lat":37.732215881347656,"lng":127.59996795654297,"zoom":15},{"name":"남산면","depth":3,"lat":37.79168701171875,"lng":127.64619445800781,"zoom":15},{"name":"동내면","depth":3,"lat":37.847854614257812,"lng":127.76114654541016,"zoom":15},{"name":"동면","depth":3,"lat":37.910026550292969,"lng":127.78111267089844,"zoom":15},{"name":"동산면","depth":3,"lat":37.752170562744141,"lng":127.79671478271484,"zoom":15},{"name":"봉의동","depth":3,"lat":37.886360168457031,"lng":127.73062896728516,"zoom":15},{"name":"북산면","depth":3,"lat":37.987335205078125,"lng":127.88592529296875,"zoom":15},{"name":"사농동","depth":3,"lat":37.914077758789063,"lng":127.72058868408203,"zoom":15},{"name":"사북면","depth":3,"lat":38.029853820800781,"lng":127.64080810546875,"zoom":15},{"name":"삼천동","depth":3,"lat":37.8686637878418,"lng":127.70119476318359,"zoom":15},{"name":"서면","depth":3,"lat":37.898838043212891,"lng":127.69281768798828,"zoom":15},{"name":"석사동","depth":3,"lat":37.8585319519043,"lng":127.74231719970703,"zoom":15},{"name":"소양동","depth":3,"lat":37.882247924804688,"lng":127.72471618652344,"zoom":15},{"name":"소양로1가","depth":3,"lat":37.892173767089844,"lng":127.73035430908203,"zoom":15},{"name":"소양로2가","depth":3,"lat":37.887691497802734,"lng":127.72515869140625,"zoom":15},{"name":"소양로3가","depth":3,"lat":37.881446838378906,"lng":127.72261047363281,"zoom":15},{"name":"소양로4가","depth":3,"lat":37.876823425292969,"lng":127.71933746337891,"zoom":15},{"name":"송암동","depth":3,"lat":37.855312347412109,"lng":127.69673156738281,"zoom":15},{"name":"신동","depth":3,"lat":37.937507629394531,"lng":127.72447967529297,"zoom":15},{"name":"신동면","depth":3,"lat":37.817680358886719,"lng":127.71598052978516,"zoom":15},{"name":"신북읍","depth":3,"lat":37.925907135009766,"lng":127.74617767333984,"zoom":15},{"name":"신사우동","depth":3,"lat":37.905887603759766,"lng":127.72786712646484,"zoom":15},{"name":"약사동","depth":3,"lat":37.872966766357422,"lng":127.72297668457031,"zoom":15},{"name":"약사명동","depth":3,"lat":37.876583099365234,"lng":127.72478485107422,"zoom":15},{"name":"옥천동","depth":3,"lat":37.886802673339844,"lng":127.73448944091797,"zoom":15},{"name":"온의동","depth":3,"lat":37.866867065429688,"lng":127.71549224853516,"zoom":15},{"name":"요선동","depth":3,"lat":37.882575988769531,"lng":127.72736358642578,"zoom":15},{"name":"우두동","depth":3,"lat":37.903377532958984,"lng":127.73926544189453,"zoom":15},{"name":"운교동","depth":3,"lat":37.877250671386719,"lng":127.73207855224609,"zoom":15},{"name":"조양동","depth":3,"lat":37.879562377929688,"lng":127.72972869873047,"zoom":15},{"name":"조운동","depth":3,"lat":37.879444122314453,"lng":127.73030090332031,"zoom":15},{"name":"죽림동","depth":3,"lat":37.877593994140625,"lng":127.72666931152344,"zoom":15},{"name":"중도동","depth":3,"lat":37.902000427246094,"lng":127.71595764160156,"zoom":15},{"name":"중앙로1가","depth":3,"lat":37.883842468261719,"lng":127.72971343994141,"zoom":15},{"name":"중앙로2가","depth":3,"lat":37.880165100097656,"lng":127.72722625732422,"zoom":15},{"name":"중앙로3가","depth":3,"lat":37.875263214111328,"lng":127.72092437744141,"zoom":15},{"name":"칠전동","depth":3,"lat":37.844291687011719,"lng":127.69948577880859,"zoom":15},{"name":"퇴계동","depth":3,"lat":37.864471435546875,"lng":127.72625732421875,"zoom":15},{"name":"효자1동","depth":3,"lat":37.8721809387207,"lng":127.72744750976562,"zoom":15},{"name":"효자2동","depth":3,"lat":37.872299194335938,"lng":127.73650360107422,"zoom":15},{"name":"효자3동","depth":3,"lat":37.876346588134766,"lng":127.74134826660156,"zoom":15},{"name":"효자동","depth":3,"lat":37.8721809387207,"lng":127.72744750976562,"zoom":15},{"name":"후평1동","depth":3,"lat":37.885982513427734,"lng":127.74550628662109,"zoom":15},{"name":"후평2동","depth":3,"lat":37.877487182617188,"lng":127.75041198730469,"zoom":15},{"name":"후평3동","depth":3,"lat":37.876533508300781,"lng":127.75384521484375,"zoom":15},{"name":"후평동","depth":3,"lat":37.885982513427734,"lng":127.74550628662109,"zoom":15}]},{"name":"태백시","depth":2,"lat":37.1641349792481,"lng":128.985733032227,"zoom":14,"items":[{"name":"구문소동","depth":3,"lat":37.100147247314453,"lng":129.02215576171875,"zoom":15},{"name":"금천동","depth":3,"lat":37.086585998535156,"lng":128.96334838867187,"zoom":15},{"name":"동점동","depth":3,"lat":37.086807250976563,"lng":129.04986572265625,"zoom":15},{"name":"문곡동","depth":3,"lat":37.127872467041016,"lng":129.00163269042969,"zoom":15},{"name":"문곡소도동","depth":3,"lat":37.131477355957031,"lng":128.96049499511719,"zoom":15},{"name":"백산동","depth":3,"lat":37.146743774414063,"lng":129.04837036132812,"zoom":15},{"name":"삼수동","depth":3,"lat":37.180484771728516,"lng":128.97793579101562,"zoom":15},{"name":"상사미동","depth":3,"lat":37.273704528808594,"lng":128.9945068359375,"zoom":15},{"name":"상장동","depth":3,"lat":37.153354644775391,"lng":128.99064636230469,"zoom":15},{"name":"소도동","depth":3,"lat":37.122581481933594,"lng":128.95027160644531,"zoom":15},{"name":"원동","depth":3,"lat":37.265342712402344,"lng":128.95103454589844,"zoom":15},{"name":"장성동","depth":3,"lat":37.100578308105469,"lng":129.00828552246094,"zoom":15},{"name":"적각동","depth":3,"lat":37.223217010498047,"lng":128.99737548828125,"zoom":15},{"name":"조탄동","depth":3,"lat":37.32720947265625,"lng":128.97314453125,"zoom":15},{"name":"창죽동","depth":3,"lat":37.233444213867188,"lng":128.95689392089844,"zoom":15},{"name":"철암동","depth":3,"lat":37.117431640625,"lng":129.039794921875,"zoom":15},{"name":"통동","depth":3,"lat":37.164215087890625,"lng":129.01922607421875,"zoom":15},{"name":"하사미동","depth":3,"lat":37.310626983642578,"lng":128.9853515625,"zoom":15},{"name":"혈동","depth":3,"lat":37.1175651550293,"lng":128.90951538085937,"zoom":15},{"name":"화전동","depth":3,"lat":37.201580047607422,"lng":128.94203186035156,"zoom":15},{"name":"황연동","depth":3,"lat":37.178718566894531,"lng":128.9866943359375,"zoom":15},{"name":"황지동","depth":3,"lat":37.170780181884766,"lng":128.99162292480469,"zoom":15}]},{"name":"평창군","depth":2,"lat":37.3707656860352,"lng":128.390197753906,"zoom":14,"items":[{"name":"대관령면","depth":3,"lat":37.673526763916016,"lng":128.70619201660156,"zoom":15},{"name":"대화면","depth":3,"lat":37.500942230224609,"lng":128.45811462402344,"zoom":15},{"name":"미탄면","depth":3,"lat":37.342323303222656,"lng":128.49589538574219,"zoom":15},{"name":"방림면","depth":3,"lat":37.426471710205078,"lng":128.39422607421875,"zoom":15},{"name":"봉평면","depth":3,"lat":37.616153717041016,"lng":128.37950134277344,"zoom":15},{"name":"용평면","depth":3,"lat":37.6066780090332,"lng":128.440185546875,"zoom":15},{"name":"진부면","depth":3,"lat":37.637477874755859,"lng":128.55282592773437,"zoom":15},{"name":"평창읍","depth":3,"lat":37.368877410888672,"lng":128.397216796875,"zoom":15}]},{"name":"홍천군","depth":2,"lat":37.6972045898438,"lng":127.888519287109,"zoom":14,"items":[{"name":"남면","depth":3,"lat":37.618247985839844,"lng":127.76775360107422,"zoom":15},{"name":"내면","depth":3,"lat":37.773746490478516,"lng":128.38980102539062,"zoom":15},{"name":"내촌면","depth":3,"lat":37.816230773925781,"lng":128.08639526367187,"zoom":15},{"name":"동면","depth":3,"lat":37.678073883056641,"lng":127.93506622314453,"zoom":15},{"name":"두촌면","depth":3,"lat":37.868560791015625,"lng":128.01913452148437,"zoom":15},{"name":"북방면","depth":3,"lat":37.705600738525391,"lng":127.85318756103516,"zoom":15},{"name":"서면","depth":3,"lat":37.688571929931641,"lng":127.66417694091797,"zoom":15},{"name":"서석면","depth":3,"lat":37.713443756103516,"lng":128.18632507324219,"zoom":15},{"name":"홍천읍","depth":3,"lat":37.689437866210938,"lng":127.88432312011719,"zoom":15},{"name":"화촌면","depth":3,"lat":37.770999908447266,"lng":127.96690368652344,"zoom":15}]},{"name":"화천군","depth":2,"lat":38.1061820983887,"lng":127.708213806152,"zoom":14,"items":[{"name":"간동면","depth":3,"lat":38.0550422668457,"lng":127.78983306884766,"zoom":15},{"name":"사내면","depth":3,"lat":38.070163726806641,"lng":127.52344512939453,"zoom":15},{"name":"상서면","depth":3,"lat":38.157863616943359,"lng":127.65445709228516,"zoom":15},{"name":"하남면","depth":3,"lat":38.0588264465332,"lng":127.66766357421875,"zoom":15},{"name":"화천읍","depth":3,"lat":38.104286193847656,"lng":127.70709228515625,"zoom":15}]},{"name":"횡성군","depth":2,"lat":37.4918060302734,"lng":127.985023498535,"zoom":14,"items":[{"name":"갑천면","depth":3,"lat":37.560951232910156,"lng":128.11021423339844,"zoom":15},{"name":"강림면","depth":3,"lat":37.360275268554688,"lng":128.12538146972656,"zoom":15},{"name":"공근면","depth":3,"lat":37.536537170410156,"lng":127.96192932128906,"zoom":15},{"name":"둔내면","depth":3,"lat":37.512264251708984,"lng":128.21879577636719,"zoom":15},{"name":"서원면","depth":3,"lat":37.487098693847656,"lng":127.85052490234375,"zoom":15},{"name":"안흥면","depth":3,"lat":37.4124870300293,"lng":128.15608215332031,"zoom":15},{"name":"우천면","depth":3,"lat":37.459419250488281,"lng":128.06243896484375,"zoom":15},{"name":"청일면","depth":3,"lat":37.583744049072266,"lng":128.150390625,"zoom":15},{"name":"횡성읍","depth":3,"lat":37.492397308349609,"lng":127.99261474609375,"zoom":15}]}]},{"name":"경기도","depth":1,"lat":37.483877,"lng":127.537094,"zoom":10,"items":[{"name":"가평군","depth":2,"lat":37.8315086364746,"lng":127.509544372559,"zoom":14,"items":[{"name":"가평읍","depth":3,"lat":37.825366973876953,"lng":127.51656341552734,"zoom":15},{"name":"북면","depth":3,"lat":37.885639190673828,"lng":127.55024719238281,"zoom":15},{"name":"상면","depth":3,"lat":37.804721832275391,"lng":127.35678863525391,"zoom":15},{"name":"설악면","depth":3,"lat":37.67620849609375,"lng":127.49472045898437,"zoom":15},{"name":"청평면","depth":3,"lat":37.740486145019531,"lng":127.42416381835938,"zoom":15},{"name":"하면","depth":3,"lat":37.817512512207031,"lng":127.35324096679687,"zoom":15}]},{"name":"고양시 덕양구","depth":2,"lat":37.6374320983887,"lng":126.832359313965,"zoom":14,"items":[{"name":"강매동","depth":3,"lat":37.604476928710937,"lng":126.84270477294922,"zoom":15},{"name":"고양동","depth":3,"lat":37.703315734863281,"lng":126.90367889404297,"zoom":15},{"name":"관산동","depth":3,"lat":37.688404083251953,"lng":126.86228942871094,"zoom":15},{"name":"내곡동","depth":3,"lat":37.639053344726562,"lng":126.80544281005859,"zoom":15},{"name":"내유동","depth":3,"lat":37.723049163818359,"lng":126.85407257080078,"zoom":15},{"name":"능곡동","depth":3,"lat":37.622787475585937,"lng":126.8182373046875,"zoom":15},{"name":"대덕동","depth":3,"lat":37.585529327392578,"lng":126.87522125244141,"zoom":15},{"name":"대자동","depth":3,"lat":37.697921752929688,"lng":126.88590240478516,"zoom":15},{"name":"대장동","depth":3,"lat":37.639522552490234,"lng":126.818603515625,"zoom":15},{"name":"덕은동","depth":3,"lat":37.580623626708984,"lng":126.85690307617187,"zoom":15},{"name":"도내동","depth":3,"lat":37.625152587890625,"lng":126.86237335205078,"zoom":15},{"name":"동산동","depth":3,"lat":37.642719268798828,"lng":126.89813232421875,"zoom":15},{"name":"벽제동","depth":3,"lat":37.726036071777344,"lng":126.91120910644531,"zoom":15},{"name":"북한동","depth":3,"lat":37.646369934082031,"lng":126.97145080566406,"zoom":15},{"name":"삼송동","depth":3,"lat":37.651782989501953,"lng":126.89025115966797,"zoom":15},{"name":"선유동","depth":3,"lat":37.693130493164062,"lng":126.91220092773437,"zoom":15},{"name":"성사1동","depth":3,"lat":37.654636383056641,"lng":126.84123229980469,"zoom":15},{"name":"성사2동","depth":3,"lat":37.652835845947266,"lng":126.83281707763672,"zoom":15},{"name":"성사동","depth":3,"lat":37.654636383056641,"lng":126.84123229980469,"zoom":15},{"name":"신도동","depth":3,"lat":37.652568817138672,"lng":126.89361572265625,"zoom":15},{"name":"신원동","depth":3,"lat":37.677753448486328,"lng":126.87686920166016,"zoom":15},{"name":"신평동","depth":3,"lat":37.623992919921875,"lng":126.78213500976562,"zoom":15},{"name":"오금동","depth":3,"lat":37.667423248291016,"lng":126.90352630615234,"zoom":15},{"name":"용두동","depth":3,"lat":37.624874114990234,"lng":126.88971710205078,"zoom":15},{"name":"원당동","depth":3,"lat":37.671684265136719,"lng":126.85688781738281,"zoom":15},{"name":"원신동","depth":3,"lat":37.677642822265625,"lng":126.87591552734375,"zoom":15},{"name":"원흥동","depth":3,"lat":37.647598266601563,"lng":126.87100982666016,"zoom":15},{"name":"주교동","depth":3,"lat":37.659427642822266,"lng":126.82978820800781,"zoom":15},{"name":"지축동","depth":3,"lat":37.653926849365234,"lng":126.92132568359375,"zoom":15},{"name":"창릉동","depth":3,"lat":37.646492004394531,"lng":126.8992919921875,"zoom":15},{"name":"토당동","depth":3,"lat":37.624656677246094,"lng":126.81819152832031,"zoom":15},{"name":"행신1동","depth":3,"lat":37.622356414794922,"lng":126.83603668212891,"zoom":15},{"name":"행신2동","depth":3,"lat":37.615131378173828,"lng":126.83292388916016,"zoom":15},{"name":"행신3동","depth":3,"lat":37.626415252685547,"lng":126.83860778808594,"zoom":15},{"name":"행신동","depth":3,"lat":37.622356414794922,"lng":126.83603668212891,"zoom":15},{"name":"행주내동","depth":3,"lat":37.605377197265625,"lng":126.82683563232422,"zoom":15},{"name":"행주동","depth":3,"lat":37.618412017822266,"lng":126.82528686523437,"zoom":15},{"name":"행주외동","depth":3,"lat":37.605503082275391,"lng":126.81442260742187,"zoom":15},{"name":"향동동","depth":3,"lat":37.599933624267578,"lng":126.89319610595703,"zoom":15},{"name":"현천동","depth":3,"lat":37.591426849365234,"lng":126.85062408447266,"zoom":15},{"name":"화전동","depth":3,"lat":37.600063323974609,"lng":126.87266540527344,"zoom":15},{"name":"화정1동","depth":3,"lat":37.644706726074219,"lng":126.83355712890625,"zoom":15},{"name":"화정2동","depth":3,"lat":37.630561828613281,"lng":126.83570098876953,"zoom":15},{"name":"화정동","depth":3,"lat":37.63897705078125,"lng":126.83378601074219,"zoom":15},{"name":"효자동","depth":3,"lat":37.670635223388672,"lng":126.97213745117187,"zoom":15},{"name":"흥도동","depth":3,"lat":37.644931793212891,"lng":126.85434722900391,"zoom":15}]},{"name":"고양시 일산동구","depth":2,"lat":37.6587829589844,"lng":126.775146484375,"zoom":14,"items":[{"name":"고봉동","depth":3,"lat":37.701904296875,"lng":126.82719421386719,"zoom":15},{"name":"마두1동","depth":3,"lat":37.655765533447266,"lng":126.78965759277344,"zoom":15},{"name":"마두2동","depth":3,"lat":37.653617858886719,"lng":126.78441619873047,"zoom":15},{"name":"마두동","depth":3,"lat":37.655765533447266,"lng":126.78965759277344,"zoom":15},{"name":"문봉동","depth":3,"lat":37.699405670166016,"lng":126.82631683349609,"zoom":15},{"name":"백석1동","depth":3,"lat":37.650043487548828,"lng":126.79236602783203,"zoom":15},{"name":"백석2동","depth":3,"lat":37.642860412597656,"lng":126.78679656982422,"zoom":15},{"name":"백석동","depth":3,"lat":37.650043487548828,"lng":126.79236602783203,"zoom":15},{"name":"사리현동","depth":3,"lat":37.697063446044922,"lng":126.84156036376953,"zoom":15},{"name":"산황동","depth":3,"lat":37.6511116027832,"lng":126.80804443359375,"zoom":15},{"name":"설문동","depth":3,"lat":37.720802307128906,"lng":126.80648803710937,"zoom":15},{"name":"성석동","depth":3,"lat":37.702556610107422,"lng":126.79563140869141,"zoom":15},{"name":"식사동","depth":3,"lat":37.674018859863281,"lng":126.81002807617187,"zoom":15},{"name":"장항1동","depth":3,"lat":37.6417236328125,"lng":126.77023315429687,"zoom":15},{"name":"장항2동","depth":3,"lat":37.649929046630859,"lng":126.77824401855469,"zoom":15},{"name":"장항동","depth":3,"lat":37.6417236328125,"lng":126.77023315429687,"zoom":15},{"name":"정발산동","depth":3,"lat":37.672470092773438,"lng":126.77986907958984,"zoom":15},{"name":"중산동","depth":3,"lat":37.691577911376953,"lng":126.78049468994141,"zoom":15},{"name":"지영동","depth":3,"lat":37.712177276611328,"lng":126.82849884033203,"zoom":15},{"name":"풍동","depth":3,"lat":37.671333312988281,"lng":126.79371643066406,"zoom":15},{"name":"풍산동","depth":3,"lat":37.664089202880859,"lng":126.79991149902344,"zoom":15}]},{"name":"고양시 일산서구","depth":2,"lat":37.6750869750977,"lng":126.750701904297,"zoom":14,"items":[{"name":"가좌동","depth":3,"lat":37.691123962402344,"lng":126.72045135498047,"zoom":15},{"name":"구산동","depth":3,"lat":37.6833610534668,"lng":126.68096923828125,"zoom":15},{"name":"대화동","depth":3,"lat":37.682968139648437,"lng":126.75511932373047,"zoom":15},{"name":"덕이동","depth":3,"lat":37.695728302001953,"lng":126.73834991455078,"zoom":15},{"name":"법곳동","depth":3,"lat":37.6654052734375,"lng":126.71404266357422,"zoom":15},{"name":"송산동","depth":3,"lat":37.690914154052734,"lng":126.75434875488281,"zoom":15},{"name":"송포동","depth":3,"lat":37.671516418457031,"lng":126.73556518554687,"zoom":15},{"name":"일산1동","depth":3,"lat":37.6871452331543,"lng":126.7685546875,"zoom":15},{"name":"일산2동","depth":3,"lat":37.684539794921875,"lng":126.77729034423828,"zoom":15},{"name":"일산3동","depth":3,"lat":37.676944732666016,"lng":126.77036285400391,"zoom":15},{"name":"일산동","depth":3,"lat":37.6871452331543,"lng":126.7685546875,"zoom":15},{"name":"주엽1동","depth":3,"lat":37.670097351074219,"lng":126.76329803466797,"zoom":15},{"name":"주엽2동","depth":3,"lat":37.674018859863281,"lng":126.76042175292969,"zoom":15},{"name":"주엽동","depth":3,"lat":37.670097351074219,"lng":126.76329803466797,"zoom":15},{"name":"탄현동","depth":3,"lat":37.694343566894531,"lng":126.76854705810547,"zoom":15}]},{"name":"과천시","depth":2,"lat":37.42919921875,"lng":126.987640380859,"zoom":14,"items":[{"name":"갈현동","depth":3,"lat":37.41571044921875,"lng":126.97903442382813,"zoom":15},{"name":"과천동","depth":3,"lat":37.448097229003906,"lng":126.99551391601563,"zoom":15},{"name":"관문동","depth":3,"lat":37.441677093505859,"lng":126.98703002929687,"zoom":15},{"name":"막계동","depth":3,"lat":37.427932739257813,"lng":127.02529144287109,"zoom":15},{"name":"문원동","depth":3,"lat":37.430126190185547,"lng":127.00251770019531,"zoom":15},{"name":"별양동","depth":3,"lat":37.424468994140625,"lng":126.99398803710937,"zoom":15},{"name":"부림동","depth":3,"lat":37.433418273925781,"lng":126.99849700927734,"zoom":15},{"name":"원문동","depth":3,"lat":37.421657562255859,"lng":126.99179077148437,"zoom":15},{"name":"주암동","depth":3,"lat":37.446926116943359,"lng":127.02079010009766,"zoom":15},{"name":"중앙동","depth":3,"lat":37.435951232910156,"lng":126.99272918701172,"zoom":15}]},{"name":"광명시","depth":2,"lat":37.4786186218262,"lng":126.864646911621,"zoom":14,"items":[{"name":"가학동","depth":3,"lat":37.414798736572266,"lng":126.85903930664063,"zoom":15},{"name":"광명1동","depth":3,"lat":37.488628387451172,"lng":126.86268615722656,"zoom":15},{"name":"광명2동","depth":3,"lat":37.483352661132813,"lng":126.85591888427734,"zoom":15},{"name":"광명3동","depth":3,"lat":37.480220794677734,"lng":126.85694885253906,"zoom":15},{"name":"광명4동","depth":3,"lat":37.477176666259766,"lng":126.85633087158203,"zoom":15},{"name":"광명5동","depth":3,"lat":37.4787712097168,"lng":126.84748840332031,"zoom":15},{"name":"광명6동","depth":3,"lat":37.471672058105469,"lng":126.84892272949219,"zoom":15},{"name":"광명7동","depth":3,"lat":37.469429016113281,"lng":126.85354614257813,"zoom":15},{"name":"광명동","depth":3,"lat":37.488628387451172,"lng":126.86268615722656,"zoom":15},{"name":"노온사동","depth":3,"lat":37.4406852722168,"lng":126.85078430175781,"zoom":15},{"name":"소하1동","depth":3,"lat":37.45220947265625,"lng":126.885009765625,"zoom":15},{"name":"소하2동","depth":3,"lat":37.440250396728516,"lng":126.87777709960937,"zoom":15},{"name":"소하동","depth":3,"lat":37.45220947265625,"lng":126.885009765625,"zoom":15},{"name":"옥길동","depth":3,"lat":37.466407775878906,"lng":126.83661651611328,"zoom":15},{"name":"일직동","depth":3,"lat":37.419147491455078,"lng":126.88141632080078,"zoom":15},{"name":"철산1동","depth":3,"lat":37.490749359130859,"lng":126.86794281005859,"zoom":15},{"name":"철산2동","depth":3,"lat":37.484668731689453,"lng":126.86660766601562,"zoom":15},{"name":"철산3동","depth":3,"lat":37.480934143066406,"lng":126.87035369873047,"zoom":15},{"name":"철산4동","depth":3,"lat":37.474098205566406,"lng":126.86451721191406,"zoom":15},{"name":"철산동","depth":3,"lat":37.490749359130859,"lng":126.86794281005859,"zoom":15},{"name":"하안1동","depth":3,"lat":37.465160369873047,"lng":126.86922454833984,"zoom":15},{"name":"하안2동","depth":3,"lat":37.4646110534668,"lng":126.87472534179688,"zoom":15},{"name":"하안3동","depth":3,"lat":37.458721160888672,"lng":126.88160705566406,"zoom":15},{"name":"하안4동","depth":3,"lat":37.46575927734375,"lng":126.87777709960937,"zoom":15},{"name":"하안동","depth":3,"lat":37.465160369873047,"lng":126.86922454833984,"zoom":15},{"name":"학온동","depth":3,"lat":37.415626525878906,"lng":126.85129547119141,"zoom":15}]},{"name":"광주시","depth":2,"lat":37.4174613952637,"lng":127.255920410156,"zoom":14,"items":[{"name":"경안동","depth":3,"lat":37.410938262939453,"lng":127.25733184814453,"zoom":15},{"name":"곤지암읍","depth":3,"lat":37.350925445556641,"lng":127.35233306884766,"zoom":15},{"name":"광남동","depth":3,"lat":37.389060974121094,"lng":127.22984313964844,"zoom":15},{"name":"남종면","depth":3,"lat":37.494171142578125,"lng":127.30171203613281,"zoom":15},{"name":"도척면","depth":3,"lat":37.304573059082031,"lng":127.33122253417969,"zoom":15},{"name":"목동","depth":3,"lat":37.383281707763672,"lng":127.19664001464844,"zoom":15},{"name":"목현동","depth":3,"lat":37.434402465820312,"lng":127.21437835693359,"zoom":15},{"name":"삼동","depth":3,"lat":37.416587829589844,"lng":127.19951629638672,"zoom":15},{"name":"송정동","depth":3,"lat":37.425125122070313,"lng":127.26297760009766,"zoom":15},{"name":"쌍령동","depth":3,"lat":37.400566101074219,"lng":127.27188110351563,"zoom":15},{"name":"역동","depth":3,"lat":37.399162292480469,"lng":127.25133514404297,"zoom":15},{"name":"오포읍","depth":3,"lat":37.366130828857422,"lng":127.22874450683594,"zoom":15},{"name":"장지동","depth":3,"lat":37.405345916748047,"lng":127.23226165771484,"zoom":15},{"name":"중대동","depth":3,"lat":37.407791137695312,"lng":127.21633911132813,"zoom":15},{"name":"중부면","depth":3,"lat":37.4633903503418,"lng":127.24481201171875,"zoom":15},{"name":"직동","depth":3,"lat":37.399978637695313,"lng":127.18573760986328,"zoom":15},{"name":"초월읍","depth":3,"lat":37.385280609130859,"lng":127.28804016113281,"zoom":15},{"name":"탄벌동","depth":3,"lat":37.416938781738281,"lng":127.23433685302734,"zoom":15},{"name":"태전동","depth":3,"lat":37.394203186035156,"lng":127.21186065673828,"zoom":15},{"name":"퇴촌면","depth":3,"lat":37.466732025146484,"lng":127.30707550048828,"zoom":15},{"name":"회덕동","depth":3,"lat":37.438560485839844,"lng":127.24512481689453,"zoom":15}]},{"name":"구리시","depth":2,"lat":37.5942611694336,"lng":127.129638671875,"zoom":14,"items":[{"name":"갈매동","depth":3,"lat":37.634880065917969,"lng":127.1162109375,"zoom":15},{"name":"교문1동","depth":3,"lat":37.601154327392578,"lng":127.12777709960938,"zoom":15},{"name":"교문2동","depth":3,"lat":37.5870475769043,"lng":127.13413238525391,"zoom":15},{"name":"교문동","depth":3,"lat":37.601154327392578,"lng":127.12777709960938,"zoom":15},{"name":"동구동","depth":3,"lat":37.6118049621582,"lng":127.13948822021484,"zoom":15},{"name":"사노동","depth":3,"lat":37.636451721191406,"lng":127.13973999023437,"zoom":15},{"name":"수택1동","depth":3,"lat":37.596515655517578,"lng":127.149169921875,"zoom":15},{"name":"수택2동","depth":3,"lat":37.593349456787109,"lng":127.13965606689453,"zoom":15},{"name":"수택3동","depth":3,"lat":37.591510772705078,"lng":127.13863372802734,"zoom":15},{"name":"수택동","depth":3,"lat":37.596515655517578,"lng":127.149169921875,"zoom":15},{"name":"아천동","depth":3,"lat":37.568168640136719,"lng":127.11432647705078,"zoom":15},{"name":"인창동","depth":3,"lat":37.604545593261719,"lng":127.13486480712891,"zoom":15},{"name":"토평동","depth":3,"lat":37.582595825195312,"lng":127.15224456787109,"zoom":15}]},{"name":"군포시","depth":2,"lat":37.3616104125977,"lng":126.935333251953,"zoom":14,"items":[{"name":"광정동","depth":3,"lat":37.362091064453125,"lng":126.92793273925781,"zoom":15},{"name":"군포1동","depth":3,"lat":37.3536376953125,"lng":126.94558715820313,"zoom":15},{"name":"군포2동","depth":3,"lat":37.346282958984375,"lng":126.94332122802734,"zoom":15},{"name":"궁내동","depth":3,"lat":37.359664916992188,"lng":126.92179870605469,"zoom":15},{"name":"금정동","depth":3,"lat":37.365406036376953,"lng":126.93927001953125,"zoom":15},{"name":"당동","depth":3,"lat":37.3484992980957,"lng":126.94129943847656,"zoom":15},{"name":"당정동","depth":3,"lat":37.359893798828125,"lng":126.95551300048828,"zoom":15},{"name":"대야동","depth":3,"lat":37.330245971679688,"lng":126.91529846191406,"zoom":15},{"name":"대야미동","depth":3,"lat":37.329128265380859,"lng":126.91841125488281,"zoom":15},{"name":"도마교동","depth":3,"lat":37.312038421630859,"lng":126.92240905761719,"zoom":15},{"name":"둔대동","depth":3,"lat":37.326251983642578,"lng":126.89138031005859,"zoom":15},{"name":"부곡동","depth":3,"lat":37.330120086669922,"lng":126.93385314941406,"zoom":15},{"name":"산본1동","depth":3,"lat":37.373355865478516,"lng":126.93856048583984,"zoom":15},{"name":"산본2동","depth":3,"lat":37.370010375976563,"lng":126.93270874023437,"zoom":15},{"name":"산본동","depth":3,"lat":37.373355865478516,"lng":126.93856048583984,"zoom":15},{"name":"속달동","depth":3,"lat":37.343597412109375,"lng":126.90023040771484,"zoom":15},{"name":"수리동","depth":3,"lat":37.356025695800781,"lng":126.9210205078125,"zoom":15},{"name":"오금동","depth":3,"lat":37.351032257080078,"lng":126.92953491210937,"zoom":15},{"name":"재궁동","depth":3,"lat":37.358470916748047,"lng":126.93904113769531,"zoom":15}]},{"name":"김포시","depth":2,"lat":37.6152648925781,"lng":126.715621948242,"zoom":14,"items":[{"name":"감정동","depth":3,"lat":37.6285400390625,"lng":126.68937683105469,"zoom":15},{"name":"걸포동","depth":3,"lat":37.640213012695313,"lng":126.71968841552734,"zoom":15},{"name":"고촌읍","depth":3,"lat":37.603359222412109,"lng":126.77091979980469,"zoom":15},{"name":"구래동","depth":3,"lat":37.646430969238281,"lng":126.62394714355469,"zoom":15},{"name":"김포1동","depth":3,"lat":37.627475738525391,"lng":126.70578002929687,"zoom":15},{"name":"김포2동","depth":3,"lat":37.652442932128906,"lng":126.67188262939453,"zoom":15},{"name":"대곶면","depth":3,"lat":37.649124145507812,"lng":126.58188629150391,"zoom":15},{"name":"마산동","depth":3,"lat":37.640449523925781,"lng":126.64070892333984,"zoom":15},{"name":"북변동","depth":3,"lat":37.626064300537109,"lng":126.71109771728516,"zoom":15},{"name":"사우동","depth":3,"lat":37.619590759277344,"lng":126.71668243408203,"zoom":15},{"name":"양촌읍","depth":3,"lat":37.678169250488281,"lng":126.61145782470703,"zoom":15},{"name":"운양동","depth":3,"lat":37.662452697753906,"lng":126.67782592773437,"zoom":15},{"name":"월곶면","depth":3,"lat":37.717056274414063,"lng":126.55265808105469,"zoom":15},{"name":"장기동","depth":3,"lat":37.646045684814453,"lng":126.66786956787109,"zoom":15},{"name":"통진읍","depth":3,"lat":37.691673278808594,"lng":126.59726715087891,"zoom":15},{"name":"풍무동","depth":3,"lat":37.602508544921875,"lng":126.72196960449219,"zoom":15},{"name":"하성면","depth":3,"lat":37.720188140869141,"lng":126.63124847412109,"zoom":15}]},{"name":"남양주시","depth":2,"lat":37.6359825134277,"lng":127.216468811035,"zoom":14,"items":[{"name":"가운동","depth":3,"lat":37.59906005859375,"lng":127.16990661621094,"zoom":15},{"name":"금곡동","depth":3,"lat":37.632083892822266,"lng":127.20576477050781,"zoom":15},{"name":"도농동","depth":3,"lat":37.607242584228516,"lng":127.15892028808594,"zoom":15},{"name":"별내동","depth":3,"lat":37.647983551025391,"lng":127.12713623046875,"zoom":15},{"name":"별내면","depth":3,"lat":37.664012908935547,"lng":127.11833190917969,"zoom":15},{"name":"삼패동","depth":3,"lat":37.5964469909668,"lng":127.19947814941406,"zoom":15},{"name":"수동면","depth":3,"lat":37.703590393066406,"lng":127.32608032226562,"zoom":15},{"name":"수석동","depth":3,"lat":37.587234497070313,"lng":127.17129516601562,"zoom":15},{"name":"양정동","depth":3,"lat":37.616378784179688,"lng":127.18716430664062,"zoom":15},{"name":"오남읍","depth":3,"lat":37.698799133300781,"lng":127.20465850830078,"zoom":15},{"name":"와부읍","depth":3,"lat":37.5852165222168,"lng":127.21672821044922,"zoom":15},{"name":"이패동","depth":3,"lat":37.610469818115234,"lng":127.20059967041016,"zoom":15},{"name":"일패동","depth":3,"lat":37.618934631347656,"lng":127.18272399902344,"zoom":15},{"name":"조안면","depth":3,"lat":37.535888671875,"lng":127.30340576171875,"zoom":15},{"name":"지금동","depth":3,"lat":37.609367370605469,"lng":127.16847229003906,"zoom":15},{"name":"진건읍","depth":3,"lat":37.654598236083984,"lng":127.17780303955078,"zoom":15},{"name":"진접읍","depth":3,"lat":37.726303100585938,"lng":127.18988037109375,"zoom":15},{"name":"퇴계원면","depth":3,"lat":37.649356842041016,"lng":127.14463806152344,"zoom":15},{"name":"평내동","depth":3,"lat":37.64837646484375,"lng":127.23609924316406,"zoom":15},{"name":"호평동","depth":3,"lat":37.6548957824707,"lng":127.24867248535156,"zoom":15},{"name":"화도읍","depth":3,"lat":37.657619476318359,"lng":127.30067443847656,"zoom":15}]},{"name":"동두천시","depth":2,"lat":37.9036598205566,"lng":127.060668945312,"zoom":14,"items":[{"name":"걸산동","depth":3,"lat":37.925724029541016,"lng":127.09353637695312,"zoom":15},{"name":"광암동","depth":3,"lat":37.905616760253906,"lng":127.10015106201172,"zoom":15},{"name":"동두천동","depth":3,"lat":37.933521270751953,"lng":127.05561828613281,"zoom":15},{"name":"보산동","depth":3,"lat":37.917633056640625,"lng":127.06131744384766,"zoom":15},{"name":"불현동","depth":3,"lat":37.898506164550781,"lng":127.06239318847656,"zoom":15},{"name":"상봉암동","depth":3,"lat":37.948028564453125,"lng":127.06150817871094,"zoom":15},{"name":"상패동","depth":3,"lat":37.905418395996094,"lng":127.04432678222656,"zoom":15},{"name":"생연1동","depth":3,"lat":37.9073600769043,"lng":127.06558227539062,"zoom":15},{"name":"생연2동","depth":3,"lat":37.9016227722168,"lng":127.04898071289063,"zoom":15},{"name":"생연동","depth":3,"lat":37.9073600769043,"lng":127.06558227539062,"zoom":15},{"name":"소요동","depth":3,"lat":37.929496765136719,"lng":127.05724334716797,"zoom":15},{"name":"송내동","depth":3,"lat":37.878395080566406,"lng":127.06777191162109,"zoom":15},{"name":"안흥동","depth":3,"lat":37.930599212646484,"lng":127.03306579589844,"zoom":15},{"name":"중앙동","depth":3,"lat":37.907764434814453,"lng":127.05320739746094,"zoom":15},{"name":"지행동","depth":3,"lat":37.889823913574219,"lng":127.06422424316406,"zoom":15},{"name":"탑동동","depth":3,"lat":37.883796691894531,"lng":127.11453247070312,"zoom":15},{"name":"하봉암동","depth":3,"lat":37.966533660888672,"lng":127.07415008544922,"zoom":15}]},{"name":"부천시 소사구","depth":2,"lat":37.4800758361816,"lng":126.79997253418,"zoom":14,"items":[{"name":"계수동","depth":3,"lat":37.465213775634766,"lng":126.80808258056641,"zoom":15},{"name":"괴안동","depth":3,"lat":37.478286743164063,"lng":126.80701446533203,"zoom":15},{"name":"범박동","depth":3,"lat":37.470649719238281,"lng":126.80979156494141,"zoom":15},{"name":"소사본3동","depth":3,"lat":37.472759246826172,"lng":126.79807281494141,"zoom":15},{"name":"소사본동","depth":3,"lat":37.472759246826172,"lng":126.79807281494141,"zoom":15},{"name":"송내1동","depth":3,"lat":37.483951568603516,"lng":126.75606536865234,"zoom":15},{"name":"송내2동","depth":3,"lat":37.4825325012207,"lng":126.76975250244141,"zoom":15},{"name":"송내동","depth":3,"lat":37.483951568603516,"lng":126.75606536865234,"zoom":15},{"name":"심곡본1동","depth":3,"lat":37.4824333190918,"lng":126.77899932861328,"zoom":15},{"name":"심곡본동","depth":3,"lat":37.4824333190918,"lng":126.77899932861328,"zoom":15},{"name":"역곡3동","depth":3,"lat":37.482391357421875,"lng":126.81011962890625,"zoom":15},{"name":"옥길동","depth":3,"lat":37.470230102539063,"lng":126.82878875732422,"zoom":15}]},{"name":"부천시 오정구","depth":2,"lat":37.5283699035645,"lng":126.795875549316,"zoom":14,"items":[{"name":"고강1동","depth":3,"lat":37.529548645019531,"lng":126.81211853027344,"zoom":15},{"name":"고강동","depth":3,"lat":37.529548645019531,"lng":126.81211853027344,"zoom":15},{"name":"고강본동","depth":3,"lat":37.527095794677734,"lng":126.82484436035156,"zoom":15},{"name":"내동","depth":3,"lat":37.520877838134766,"lng":126.78102111816406,"zoom":15},{"name":"대장동","depth":3,"lat":37.542060852050781,"lng":126.77555084228516,"zoom":15},{"name":"삼정동","depth":3,"lat":37.524173736572266,"lng":126.76715850830078,"zoom":15},{"name":"성곡동","depth":3,"lat":37.516685485839844,"lng":126.80355834960938,"zoom":15},{"name":"신흥동","depth":3,"lat":37.519973754882813,"lng":126.77377319335937,"zoom":15},{"name":"여월동","depth":3,"lat":37.5128173828125,"lng":126.79821014404297,"zoom":15},{"name":"오정동","depth":3,"lat":37.528842926025391,"lng":126.79081726074219,"zoom":15},{"name":"원종1동","depth":3,"lat":37.525962829589844,"lng":126.80527496337891,"zoom":15},{"name":"원종2동","depth":3,"lat":37.525215148925781,"lng":126.79917907714844,"zoom":15},{"name":"원종동","depth":3,"lat":37.525962829589844,"lng":126.80527496337891,"zoom":15},{"name":"작동","depth":3,"lat":37.513290405273438,"lng":126.81598663330078,"zoom":15}]},{"name":"부천시 원미구","depth":2,"lat":37.4965934753418,"lng":126.787109375,"zoom":14,"items":[{"name":"도당동","depth":3,"lat":37.516315460205078,"lng":126.78604125976562,"zoom":15},{"name":"상1동","depth":3,"lat":37.491722106933594,"lng":126.75319671630859,"zoom":15},{"name":"상2동","depth":3,"lat":37.500579833984375,"lng":126.75471496582031,"zoom":15},{"name":"상3동","depth":3,"lat":37.50823974609375,"lng":126.75104522705078,"zoom":15},{"name":"상동","depth":3,"lat":37.491722106933594,"lng":126.75319671630859,"zoom":15},{"name":"소사동","depth":3,"lat":37.486034393310547,"lng":126.79452514648437,"zoom":15},{"name":"심곡1동","depth":3,"lat":37.490871429443359,"lng":126.78060913085937,"zoom":15},{"name":"심곡2동","depth":3,"lat":37.487648010253906,"lng":126.78704071044922,"zoom":15},{"name":"심곡3동","depth":3,"lat":37.487369537353516,"lng":126.77401733398437,"zoom":15},{"name":"심곡동","depth":3,"lat":37.490871429443359,"lng":126.78060913085937,"zoom":15},{"name":"약대동","depth":3,"lat":37.513339996337891,"lng":126.77128601074219,"zoom":15},{"name":"역곡1동","depth":3,"lat":37.489284515380859,"lng":126.81668090820313,"zoom":15},{"name":"역곡2동","depth":3,"lat":37.486110687255859,"lng":126.80670166015625,"zoom":15},{"name":"역곡동","depth":3,"lat":37.489284515380859,"lng":126.81668090820313,"zoom":15},{"name":"원미1동","depth":3,"lat":37.494514465332031,"lng":126.78847503662109,"zoom":15},{"name":"원미2동","depth":3,"lat":37.491973876953125,"lng":126.78832244873047,"zoom":15},{"name":"원미동","depth":3,"lat":37.494514465332031,"lng":126.78847503662109,"zoom":15},{"name":"중1동","depth":3,"lat":37.497894287109375,"lng":126.77137756347656,"zoom":15},{"name":"중2동","depth":3,"lat":37.493980407714844,"lng":126.77006530761719,"zoom":15},{"name":"중3동","depth":3,"lat":37.503662109375,"lng":126.77824401855469,"zoom":15},{"name":"중4동","depth":3,"lat":37.506057739257812,"lng":126.76260375976562,"zoom":15},{"name":"중동","depth":3,"lat":37.497894287109375,"lng":126.77137756347656,"zoom":15},{"name":"춘의동","depth":3,"lat":37.502681732177734,"lng":126.78603363037109,"zoom":15}]},{"name":"성남시 분당구","depth":2,"lat":37.3828201293945,"lng":127.118927001953,"zoom":14,"items":[{"name":"구미1동","depth":3,"lat":37.349403381347656,"lng":127.11173248291016,"zoom":15},{"name":"구미동","depth":3,"lat":37.340274810791016,"lng":127.12268829345703,"zoom":15},{"name":"궁내동","depth":3,"lat":37.371368408203125,"lng":127.09299468994141,"zoom":15},{"name":"금곡동","depth":3,"lat":37.351596832275391,"lng":127.10706329345703,"zoom":15},{"name":"대장동","depth":3,"lat":37.370948791503906,"lng":127.06377410888672,"zoom":15},{"name":"동원동","depth":3,"lat":37.357513427734375,"lng":127.07999420166016,"zoom":15},{"name":"백현동","depth":3,"lat":37.388465881347656,"lng":127.11093139648437,"zoom":15},{"name":"분당동","depth":3,"lat":37.370132446289063,"lng":127.13107299804687,"zoom":15},{"name":"삼평동","depth":3,"lat":37.4061279296875,"lng":127.11635589599609,"zoom":15},{"name":"서현1동","depth":3,"lat":37.382808685302734,"lng":127.12608337402344,"zoom":15},{"name":"서현2동","depth":3,"lat":37.376079559326172,"lng":127.13456726074219,"zoom":15},{"name":"서현동","depth":3,"lat":37.382808685302734,"lng":127.12608337402344,"zoom":15},{"name":"석운동","depth":3,"lat":37.37890625,"lng":127.04185485839844,"zoom":15},{"name":"수내1동","depth":3,"lat":37.375457763671875,"lng":127.11800384521484,"zoom":15},{"name":"수내2동","depth":3,"lat":37.372474670410156,"lng":127.12078857421875,"zoom":15},{"name":"수내3동","depth":3,"lat":37.366840362548828,"lng":127.12609100341797,"zoom":15},{"name":"수내동","depth":3,"lat":37.375457763671875,"lng":127.11800384521484,"zoom":15},{"name":"야탑1동","depth":3,"lat":37.412086486816406,"lng":127.13016510009766,"zoom":15},{"name":"야탑2동","depth":3,"lat":37.409442901611328,"lng":127.12734985351563,"zoom":15},{"name":"야탑3동","depth":3,"lat":37.410892486572266,"lng":127.13785552978516,"zoom":15},{"name":"야탑동","depth":3,"lat":37.412086486816406,"lng":127.13016510009766,"zoom":15},{"name":"운중동","depth":3,"lat":37.39398193359375,"lng":127.05606842041016,"zoom":15},{"name":"율동","depth":3,"lat":37.38616943359375,"lng":127.1585693359375,"zoom":15},{"name":"이매1동","depth":3,"lat":37.399578094482422,"lng":127.12717437744141,"zoom":15},{"name":"이매2동","depth":3,"lat":37.399559020996094,"lng":127.12181854248047,"zoom":15},{"name":"이매동","depth":3,"lat":37.399578094482422,"lng":127.12717437744141,"zoom":15},{"name":"정자1동","depth":3,"lat":37.361507415771484,"lng":127.11147308349609,"zoom":15},{"name":"정자2동","depth":3,"lat":37.366024017333984,"lng":127.11518859863281,"zoom":15},{"name":"정자3동","depth":3,"lat":37.360847473144531,"lng":127.11953735351562,"zoom":15},{"name":"정자동","depth":3,"lat":37.361507415771484,"lng":127.11147308349609,"zoom":15},{"name":"판교동","depth":3,"lat":37.389972686767578,"lng":127.09874725341797,"zoom":15},{"name":"하산운동","depth":3,"lat":37.385688781738281,"lng":127.07879638671875,"zoom":15}]},{"name":"성남시 수정구","depth":2,"lat":37.4503974914551,"lng":127.145629882812,"zoom":14,"items":[{"name":"고등동","depth":3,"lat":37.425067901611328,"lng":127.10163116455078,"zoom":15},{"name":"금토동","depth":3,"lat":37.410053253173828,"lng":127.07569885253906,"zoom":15},{"name":"단대동","depth":3,"lat":37.449050903320313,"lng":127.15547943115234,"zoom":15},{"name":"둔전동","depth":3,"lat":37.433563232421875,"lng":127.11370849609375,"zoom":15},{"name":"복정동","depth":3,"lat":37.465873718261719,"lng":127.12718200683594,"zoom":15},{"name":"사송동","depth":3,"lat":37.414768218994141,"lng":127.11273193359375,"zoom":15},{"name":"산성동","depth":3,"lat":37.452323913574219,"lng":127.150146484375,"zoom":15},{"name":"상적동","depth":3,"lat":37.421482086181641,"lng":127.053955078125,"zoom":15},{"name":"수진1동","depth":3,"lat":37.438575744628906,"lng":127.13903045654297,"zoom":15},{"name":"수진2동","depth":3,"lat":37.437305450439453,"lng":127.12870788574219,"zoom":15},{"name":"수진동","depth":3,"lat":37.438575744628906,"lng":127.13903045654297,"zoom":15},{"name":"시흥동","depth":3,"lat":37.421989440917969,"lng":127.10792541503906,"zoom":15},{"name":"신촌동","depth":3,"lat":37.459270477294922,"lng":127.10895538330078,"zoom":15},{"name":"신흥1동","depth":3,"lat":37.443115234375,"lng":127.14113616943359,"zoom":15},{"name":"신흥2동","depth":3,"lat":37.448680877685547,"lng":127.14581298828125,"zoom":15},{"name":"신흥3동","depth":3,"lat":37.443565368652344,"lng":127.14897918701172,"zoom":15},{"name":"신흥동","depth":3,"lat":37.443115234375,"lng":127.14113616943359,"zoom":15},{"name":"심곡동","depth":3,"lat":37.446865081787109,"lng":127.10235595703125,"zoom":15},{"name":"양지동","depth":3,"lat":37.454853057861328,"lng":127.16098785400391,"zoom":15},{"name":"오야동","depth":3,"lat":37.453022003173828,"lng":127.11135864257813,"zoom":15},{"name":"창곡동","depth":3,"lat":37.468311309814453,"lng":127.1478271484375,"zoom":15},{"name":"태평1동","depth":3,"lat":37.440818786621094,"lng":127.12599182128906,"zoom":15},{"name":"태평2동","depth":3,"lat":37.447166442871094,"lng":127.13864898681641,"zoom":15},{"name":"태평3동","depth":3,"lat":37.445560455322266,"lng":127.13284301757813,"zoom":15},{"name":"태평4동","depth":3,"lat":37.448032379150391,"lng":127.14133453369141,"zoom":15},{"name":"태평동","depth":3,"lat":37.440818786621094,"lng":127.12599182128906,"zoom":15}]},{"name":"성남시 중원구","depth":2,"lat":37.4305229187012,"lng":127.13720703125,"zoom":14,"items":[{"name":"갈현동","depth":3,"lat":37.420368194580078,"lng":127.17457580566406,"zoom":15},{"name":"금광1동","depth":3,"lat":37.4450569152832,"lng":127.16242980957031,"zoom":15},{"name":"금광2동","depth":3,"lat":37.4463005065918,"lng":127.16400146484375,"zoom":15},{"name":"금광동","depth":3,"lat":37.4450569152832,"lng":127.16242980957031,"zoom":15},{"name":"도촌동","depth":3,"lat":37.416622161865234,"lng":127.15282440185547,"zoom":15},{"name":"상대원1동","depth":3,"lat":37.433326721191406,"lng":127.16433715820313,"zoom":15},{"name":"상대원2동","depth":3,"lat":37.4389533996582,"lng":127.15829467773438,"zoom":15},{"name":"상대원3동","depth":3,"lat":37.439720153808594,"lng":127.16535949707031,"zoom":15},{"name":"상대원동","depth":3,"lat":37.433326721191406,"lng":127.16433715820313,"zoom":15},{"name":"성남동","depth":3,"lat":37.432144165039063,"lng":127.13159942626953,"zoom":15},{"name":"여수동","depth":3,"lat":37.421146392822266,"lng":127.14374542236328,"zoom":15},{"name":"은행1동","depth":3,"lat":37.452121734619141,"lng":127.16887664794922,"zoom":15},{"name":"은행2동","depth":3,"lat":37.456802368164062,"lng":127.16691589355469,"zoom":15},{"name":"은행동","depth":3,"lat":37.452121734619141,"lng":127.16887664794922,"zoom":15},{"name":"중앙동","depth":3,"lat":37.444015502929688,"lng":127.15749359130859,"zoom":15},{"name":"하대원동","depth":3,"lat":37.428318023681641,"lng":127.14638519287109,"zoom":15}]},{"name":"수원시 권선구","depth":2,"lat":37.2576065063476,"lng":126.971893310547,"zoom":14,"items":[{"name":"고색동","depth":3,"lat":37.246196746826172,"lng":126.98414611816406,"zoom":15},{"name":"곡반정동","depth":3,"lat":37.238010406494141,"lng":127.03021240234375,"zoom":15},{"name":"곡선동","depth":3,"lat":37.2431526184082,"lng":127.03329467773438,"zoom":15},{"name":"구운동","depth":3,"lat":37.277267456054688,"lng":126.97154235839844,"zoom":15},{"name":"권선1동","depth":3,"lat":37.257675170898437,"lng":127.02459716796875,"zoom":15},{"name":"권선2동","depth":3,"lat":37.251358032226563,"lng":127.02960205078125,"zoom":15},{"name":"권선동","depth":3,"lat":37.257675170898437,"lng":127.02459716796875,"zoom":15},{"name":"금곡동","depth":3,"lat":37.269985198974609,"lng":126.93595886230469,"zoom":15},{"name":"금호동","depth":3,"lat":37.266159057617188,"lng":126.95693969726563,"zoom":15},{"name":"당수동","depth":3,"lat":37.288719177246094,"lng":126.94021606445312,"zoom":15},{"name":"대황교동","depth":3,"lat":37.231201171875,"lng":127.01441955566406,"zoom":15},{"name":"서둔동","depth":3,"lat":37.272556304931641,"lng":126.98597717285156,"zoom":15},{"name":"세류1동","depth":3,"lat":37.262119293212891,"lng":127.008056640625,"zoom":15},{"name":"세류2동","depth":3,"lat":37.253368377685547,"lng":127.01305389404297,"zoom":15},{"name":"세류3동","depth":3,"lat":37.258975982666016,"lng":127.01203155517578,"zoom":15},{"name":"세류동","depth":3,"lat":37.262119293212891,"lng":127.008056640625,"zoom":15},{"name":"오목천동","depth":3,"lat":37.241870880126953,"lng":126.96939086914062,"zoom":15},{"name":"입북동","depth":3,"lat":37.293243408203125,"lng":126.95965576171875,"zoom":15},{"name":"장지동","depth":3,"lat":37.241397857666016,"lng":127.01004028320313,"zoom":15},{"name":"탑동","depth":3,"lat":37.264896392822266,"lng":126.97415161132812,"zoom":15},{"name":"평동","depth":3,"lat":37.258041381835938,"lng":126.99392700195312,"zoom":15},{"name":"평리동","depth":3,"lat":37.242683410644531,"lng":126.99611663818359,"zoom":15},{"name":"호매실동","depth":3,"lat":37.260799407958984,"lng":126.95848083496094,"zoom":15}]},{"name":"수원시 영통구","depth":2,"lat":37.2596015930176,"lng":127.046524047852,"zoom":14,"items":[{"name":"광교동","depth":3,"lat":37.290336608886719,"lng":127.04676818847656,"zoom":15},{"name":"망포동","depth":3,"lat":37.240776062011719,"lng":127.04777526855469,"zoom":15},{"name":"매탄1동","depth":3,"lat":37.270423889160156,"lng":127.04033660888672,"zoom":15},{"name":"매탄2동","depth":3,"lat":37.270175933837891,"lng":127.04737854003906,"zoom":15},{"name":"매탄3동","depth":3,"lat":37.256423950195313,"lng":127.043212890625,"zoom":15},{"name":"매탄4동","depth":3,"lat":37.265083312988281,"lng":127.04869842529297,"zoom":15},{"name":"매탄동","depth":3,"lat":37.270423889160156,"lng":127.04033660888672,"zoom":15},{"name":"신동","depth":3,"lat":37.250282287597656,"lng":127.04981231689453,"zoom":15},{"name":"영통1동","depth":3,"lat":37.2663459777832,"lng":127.08054351806641,"zoom":15},{"name":"영통2동","depth":3,"lat":37.2469596862793,"lng":127.05624389648437,"zoom":15},{"name":"영통동","depth":3,"lat":37.2663459777832,"lng":127.08054351806641,"zoom":15},{"name":"원천동","depth":3,"lat":37.273544311523438,"lng":127.05325317382813,"zoom":15},{"name":"이의동","depth":3,"lat":37.303684234619141,"lng":127.04637145996094,"zoom":15},{"name":"태장동","depth":3,"lat":37.238994598388672,"lng":127.05167388916016,"zoom":15},{"name":"하동","depth":3,"lat":37.289993286132813,"lng":127.07412719726562,"zoom":15}]},{"name":"수원시 장안구","depth":2,"lat":37.3040428161621,"lng":127.010108947754,"zoom":14,"items":[{"name":"상광교동","depth":3,"lat":37.3353157043457,"lng":127.01766204833984,"zoom":15},{"name":"송죽동","depth":3,"lat":37.300514221191406,"lng":127.00698089599609,"zoom":15},{"name":"연무동","depth":3,"lat":37.290611267089844,"lng":127.02159118652344,"zoom":15},{"name":"영화동","depth":3,"lat":37.293178558349609,"lng":127.01409912109375,"zoom":15},{"name":"율전동","depth":3,"lat":37.302879333496094,"lng":126.96978759765625,"zoom":15},{"name":"율천동","depth":3,"lat":37.297615051269531,"lng":126.97141265869141,"zoom":15},{"name":"이목동","depth":3,"lat":37.318901062011719,"lng":126.97820281982422,"zoom":15},{"name":"정자1동","depth":3,"lat":37.302215576171875,"lng":126.99130249023438,"zoom":15},{"name":"정자2동","depth":3,"lat":37.295120239257813,"lng":127.00047302246094,"zoom":15},{"name":"정자3동","depth":3,"lat":37.295921325683594,"lng":126.99259948730469,"zoom":15},{"name":"정자동","depth":3,"lat":37.301753997802734,"lng":126.9908447265625,"zoom":15},{"name":"조원1동","depth":3,"lat":37.301910400390625,"lng":127.01654052734375,"zoom":15},{"name":"조원2동","depth":3,"lat":37.305595397949219,"lng":127.00950622558594,"zoom":15},{"name":"조원동","depth":3,"lat":37.301910400390625,"lng":127.01654052734375,"zoom":15},{"name":"천천동","depth":3,"lat":37.2920036315918,"lng":126.97711944580078,"zoom":15},{"name":"파장동","depth":3,"lat":37.308414459228516,"lng":126.99478912353516,"zoom":15},{"name":"하광교동","depth":3,"lat":37.317695617675781,"lng":127.02816772460938,"zoom":15}]},{"name":"수원시 팔달구","depth":2,"lat":37.2867317199707,"lng":127.036102294922,"zoom":14,"items":[{"name":"고등동","depth":3,"lat":37.273212432861328,"lng":127.00107574462891,"zoom":15},{"name":"교동","depth":3,"lat":37.2733268737793,"lng":127.01306915283203,"zoom":15},{"name":"구천동","depth":3,"lat":37.273654937744141,"lng":127.01807403564453,"zoom":15},{"name":"남수동","depth":3,"lat":37.2796630859375,"lng":127.01894378662109,"zoom":15},{"name":"남창동","depth":3,"lat":37.2795295715332,"lng":127.01232147216797,"zoom":15},{"name":"매교동","depth":3,"lat":37.268772125244141,"lng":127.01430511474609,"zoom":15},{"name":"매산동","depth":3,"lat":37.268623352050781,"lng":127.00580596923828,"zoom":15},{"name":"매산로1가","depth":3,"lat":37.267398834228516,"lng":127.00094604492187,"zoom":15},{"name":"매산로2가","depth":3,"lat":37.265262603759766,"lng":127.004150390625,"zoom":15},{"name":"매산로3가","depth":3,"lat":37.271083831787109,"lng":127.00948333740234,"zoom":15},{"name":"매향동","depth":3,"lat":37.285556793212891,"lng":127.02082061767578,"zoom":15},{"name":"북수동","depth":3,"lat":37.285530090332031,"lng":127.01660919189453,"zoom":15},{"name":"신풍동","depth":3,"lat":37.283836364746094,"lng":127.01412200927734,"zoom":15},{"name":"영동","depth":3,"lat":37.276329040527344,"lng":127.01851654052734,"zoom":15},{"name":"우만1동","depth":3,"lat":37.285308837890625,"lng":127.02938842773437,"zoom":15},{"name":"우만2동","depth":3,"lat":37.277938842773437,"lng":127.03973388671875,"zoom":15},{"name":"우만동","depth":3,"lat":37.285308837890625,"lng":127.02938842773437,"zoom":15},{"name":"인계동","depth":3,"lat":37.270179748535156,"lng":127.02119445800781,"zoom":15},{"name":"장안동","depth":3,"lat":37.286483764648437,"lng":127.01291656494141,"zoom":15},{"name":"중동","depth":3,"lat":37.274085998535156,"lng":127.01628112792969,"zoom":15},{"name":"지동","depth":3,"lat":37.282119750976563,"lng":127.02845001220703,"zoom":15},{"name":"팔달로1가","depth":3,"lat":37.2804412841797,"lng":127.016326904297,"zoom":15},{"name":"팔달로2가","depth":3,"lat":37.278396606445313,"lng":127.01690673828125,"zoom":15},{"name":"팔달로3가","depth":3,"lat":37.276187896728516,"lng":127.01554870605469,"zoom":15},{"name":"행궁동","depth":3,"lat":37.284099578857422,"lng":127.01267242431641,"zoom":15},{"name":"화서1동","depth":3,"lat":37.276756286621094,"lng":126.99475860595703,"zoom":15},{"name":"화서2동","depth":3,"lat":37.285163879394531,"lng":126.98623657226562,"zoom":15},{"name":"화서동","depth":3,"lat":37.276756286621094,"lng":126.99475860595703,"zoom":15}]},{"name":"시흥시","depth":2,"lat":37.3801727294922,"lng":126.802940368652,"zoom":14,"items":[{"name":"거모동","depth":3,"lat":37.3567008972168,"lng":126.77417755126953,"zoom":15},{"name":"계수동","depth":3,"lat":37.4498176574707,"lng":126.81238555908203,"zoom":15},{"name":"과림동","depth":3,"lat":37.4368782043457,"lng":126.83287811279297,"zoom":15},{"name":"광석동","depth":3,"lat":37.381057739257813,"lng":126.81595611572266,"zoom":15},{"name":"군자동","depth":3,"lat":37.360980987548828,"lng":126.79473876953125,"zoom":15},{"name":"금이동","depth":3,"lat":37.399559020996094,"lng":126.83599090576172,"zoom":15},{"name":"논곡동","depth":3,"lat":37.396385192871094,"lng":126.85609436035156,"zoom":15},{"name":"능곡동","depth":3,"lat":37.365943908691406,"lng":126.81591796875,"zoom":15},{"name":"대야동","depth":3,"lat":37.443008422851563,"lng":126.78853607177734,"zoom":15},{"name":"도창동","depth":3,"lat":37.405616760253906,"lng":126.82028961181641,"zoom":15},{"name":"매화동","depth":3,"lat":37.418041229248047,"lng":126.81531524658203,"zoom":15},{"name":"목감동","depth":3,"lat":37.391250610351562,"lng":126.86965942382813,"zoom":15},{"name":"무지내동","depth":3,"lat":37.419731140136719,"lng":126.83694458007812,"zoom":15},{"name":"물왕동","depth":3,"lat":37.386020660400391,"lng":126.84043884277344,"zoom":15},{"name":"미산동","depth":3,"lat":37.417522430419922,"lng":126.78939056396484,"zoom":15},{"name":"방산동","depth":3,"lat":37.4180793762207,"lng":126.76486968994141,"zoom":15},{"name":"산현동","depth":3,"lat":37.370109558105469,"lng":126.83367156982422,"zoom":15},{"name":"신천동","depth":3,"lat":37.435375213623047,"lng":126.78179168701172,"zoom":15},{"name":"신현동","depth":3,"lat":37.406177520751953,"lng":126.78459167480469,"zoom":15},{"name":"안현동","depth":3,"lat":37.431007385253906,"lng":126.81407165527344,"zoom":15},{"name":"연성동","depth":3,"lat":37.381633758544922,"lng":126.80353546142578,"zoom":15},{"name":"월곶동","depth":3,"lat":37.384975433349609,"lng":126.75914001464844,"zoom":15},{"name":"은행동","depth":3,"lat":37.436279296875,"lng":126.79788970947266,"zoom":15},{"name":"장곡동","depth":3,"lat":37.384368896484375,"lng":126.78150939941406,"zoom":15},{"name":"장현동","depth":3,"lat":37.378005981445313,"lng":126.79932403564453,"zoom":15},{"name":"정왕1동","depth":3,"lat":37.340160369873047,"lng":126.74391937255859,"zoom":15},{"name":"정왕2동","depth":3,"lat":37.3510627746582,"lng":126.72888946533203,"zoom":15},{"name":"정왕3동","depth":3,"lat":37.357639312744141,"lng":126.72643280029297,"zoom":15},{"name":"정왕4동","depth":3,"lat":37.365657806396484,"lng":126.73206329345703,"zoom":15},{"name":"정왕동","depth":3,"lat":37.340160369873047,"lng":126.74391937255859,"zoom":15},{"name":"정왕본동","depth":3,"lat":37.349327087402344,"lng":126.74628448486328,"zoom":15},{"name":"조남동","depth":3,"lat":37.372219085693359,"lng":126.86228942871094,"zoom":15},{"name":"죽율동","depth":3,"lat":37.350528717041016,"lng":126.76275634765625,"zoom":15},{"name":"포동","depth":3,"lat":37.404266357421875,"lng":126.77833557128906,"zoom":15},{"name":"하상동","depth":3,"lat":37.392147064208984,"lng":126.81460571289063,"zoom":15},{"name":"하중동","depth":3,"lat":37.39886474609375,"lng":126.80070495605469,"zoom":15},{"name":"화정동","depth":3,"lat":37.359291076660156,"lng":126.81568145751953,"zoom":15}]},{"name":"안산시 단원구","depth":2,"lat":37.3195991516113,"lng":126.81217956543,"zoom":14,"items":[{"name":"고잔1동","depth":3,"lat":37.3271598815918,"lng":126.81910705566406,"zoom":15},{"name":"고잔2동","depth":3,"lat":37.3237419128418,"lng":126.83763122558594,"zoom":15},{"name":"고잔동","depth":3,"lat":37.3271598815918,"lng":126.81910705566406,"zoom":15},{"name":"대부남동","depth":3,"lat":37.229827880859375,"lng":126.57797241210937,"zoom":15},{"name":"대부동","depth":3,"lat":37.243690490722656,"lng":126.585205078125,"zoom":15},{"name":"대부동동","depth":3,"lat":37.2490234375,"lng":126.60161590576172,"zoom":15},{"name":"대부북동","depth":3,"lat":37.261436462402344,"lng":126.57436370849609,"zoom":15},{"name":"목내동","depth":3,"lat":37.307518005371094,"lng":126.7744140625,"zoom":15},{"name":"선감동","depth":3,"lat":37.224716186523438,"lng":126.63555145263672,"zoom":15},{"name":"선부1동","depth":3,"lat":37.334178924560547,"lng":126.80436706542969,"zoom":15},{"name":"선부2동","depth":3,"lat":37.338630676269531,"lng":126.80266571044922,"zoom":15},{"name":"선부3동","depth":3,"lat":37.345020294189453,"lng":126.81250762939453,"zoom":15},{"name":"선부동","depth":3,"lat":37.334178924560547,"lng":126.80436706542969,"zoom":15},{"name":"성곡동","depth":3,"lat":37.316940307617188,"lng":126.73905944824219,"zoom":15},{"name":"신길동","depth":3,"lat":37.332412719726563,"lng":126.77510833740234,"zoom":15},{"name":"와동","depth":3,"lat":37.341617584228516,"lng":126.82574462890625,"zoom":15},{"name":"원곡1동","depth":3,"lat":37.327960968017578,"lng":126.79712677001953,"zoom":15},{"name":"원곡2동","depth":3,"lat":37.331600189208984,"lng":126.80185699462891,"zoom":15},{"name":"원곡동","depth":3,"lat":37.327960968017578,"lng":126.79712677001953,"zoom":15},{"name":"원곡본동","depth":3,"lat":37.3328971862793,"lng":126.79071044921875,"zoom":15},{"name":"원시동","depth":3,"lat":37.314479827880859,"lng":126.78858947753906,"zoom":15},{"name":"초지동","depth":3,"lat":37.324787139892578,"lng":126.80851745605469,"zoom":15},{"name":"풍도동","depth":3,"lat":37.1092643737793,"lng":126.38764190673828,"zoom":15},{"name":"호수동","depth":3,"lat":37.310379028320312,"lng":126.82482147216797,"zoom":15},{"name":"화정동","depth":3,"lat":37.354621887207031,"lng":126.82736968994141,"zoom":15}]},{"name":"안산시 상록구","depth":2,"lat":37.3012237548828,"lng":126.844703674316,"zoom":14,"items":[{"name":"건건동","depth":3,"lat":37.306888580322266,"lng":126.90546417236328,"zoom":15},{"name":"반월동","depth":3,"lat":37.306060791015625,"lng":126.90221405029297,"zoom":15},{"name":"본오1동","depth":3,"lat":37.289192199707031,"lng":126.86459350585937,"zoom":15},{"name":"본오2동","depth":3,"lat":37.296215057373047,"lng":126.87236785888672,"zoom":15},{"name":"본오3동","depth":3,"lat":37.301383972167969,"lng":126.86375427246094,"zoom":15},{"name":"본오동","depth":3,"lat":37.289192199707031,"lng":126.86459350585937,"zoom":15},{"name":"부곡동","depth":3,"lat":37.331966400146484,"lng":126.86107635498047,"zoom":15},{"name":"사1동","depth":3,"lat":37.2971076965332,"lng":126.85105895996094,"zoom":15},{"name":"사2동","depth":3,"lat":37.289627075195312,"lng":126.85186767578125,"zoom":15},{"name":"사3동","depth":3,"lat":37.294754028320313,"lng":126.82003021240234,"zoom":15},{"name":"사동","depth":3,"lat":37.2971076965332,"lng":126.85105895996094,"zoom":15},{"name":"사사동","depth":3,"lat":37.294864654541016,"lng":126.92398834228516,"zoom":15},{"name":"성포동","depth":3,"lat":37.320659637451172,"lng":126.84943389892578,"zoom":15},{"name":"수암동","depth":3,"lat":37.367923736572266,"lng":126.88402557373047,"zoom":15},{"name":"안산동","depth":3,"lat":37.361961364746094,"lng":126.87319183349609,"zoom":15},{"name":"양상동","depth":3,"lat":37.349868774414063,"lng":126.84426116943359,"zoom":15},{"name":"월피동","depth":3,"lat":37.335285186767578,"lng":126.84672546386719,"zoom":15},{"name":"이동","depth":3,"lat":37.305397033691406,"lng":126.86080169677734,"zoom":15},{"name":"일동","depth":3,"lat":37.310287475585938,"lng":126.86623382568359,"zoom":15},{"name":"장상동","depth":3,"lat":37.3525390625,"lng":126.87586975097656,"zoom":15},{"name":"장하동","depth":3,"lat":37.357521057128906,"lng":126.86197662353516,"zoom":15},{"name":"팔곡이동","depth":3,"lat":37.289573669433594,"lng":126.88580322265625,"zoom":15},{"name":"팔곡일동","depth":3,"lat":37.305866241455078,"lng":126.89030456542969,"zoom":15}]},{"name":"안성시","depth":2,"lat":37.0080184936523,"lng":127.279693603516,"zoom":14,"items":[{"name":"가사동","depth":3,"lat":37.01593017578125,"lng":127.28694152832031,"zoom":15},{"name":"가현동","depth":3,"lat":37.005451202392578,"lng":127.28610992431641,"zoom":15},{"name":"계동","depth":3,"lat":36.986061096191406,"lng":127.26611328125,"zoom":15},{"name":"고삼면","depth":3,"lat":37.082729339599609,"lng":127.26334381103516,"zoom":15},{"name":"공도읍","depth":3,"lat":37.001003265380859,"lng":127.17241668701172,"zoom":15},{"name":"구포동","depth":3,"lat":37.010913848876953,"lng":127.27212524414062,"zoom":15},{"name":"금광면","depth":3,"lat":36.997161865234375,"lng":127.31639099121094,"zoom":15},{"name":"금산동","depth":3,"lat":37.012401580810547,"lng":127.26785278320312,"zoom":15},{"name":"금석동","depth":3,"lat":37.031166076660156,"lng":127.27020263671875,"zoom":15},{"name":"낙원동","depth":3,"lat":37.004081726074219,"lng":127.27406311035156,"zoom":15},{"name":"당왕동","depth":3,"lat":37.020790100097656,"lng":127.26854705810547,"zoom":15},{"name":"대덕면","depth":3,"lat":37.012416839599609,"lng":127.23786926269531,"zoom":15},{"name":"대천동","depth":3,"lat":37.007991790771484,"lng":127.26914978027344,"zoom":15},{"name":"도기동","depth":3,"lat":36.997665405273437,"lng":127.26148223876953,"zoom":15},{"name":"동본동","depth":3,"lat":37.006675720214844,"lng":127.27093505859375,"zoom":15},{"name":"명륜동","depth":3,"lat":37.014080047607422,"lng":127.27606201171875,"zoom":15},{"name":"미양면","depth":3,"lat":36.975383758544922,"lng":127.21534729003906,"zoom":15},{"name":"발화동","depth":3,"lat":36.988693237304687,"lng":127.28160858154297,"zoom":15},{"name":"보개면","depth":3,"lat":37.023139953613281,"lng":127.29086303710937,"zoom":15},{"name":"봉남동","depth":3,"lat":37.007736206054687,"lng":127.27475738525391,"zoom":15},{"name":"봉산동","depth":3,"lat":37.006748199462891,"lng":127.27812194824219,"zoom":15},{"name":"사곡동","depth":3,"lat":37.039314270019531,"lng":127.25924682617187,"zoom":15},{"name":"삼죽면","depth":3,"lat":37.073047637939453,"lng":127.37482452392578,"zoom":15},{"name":"서운면","depth":3,"lat":36.9431037902832,"lng":127.25926208496094,"zoom":15},{"name":"서인동","depth":3,"lat":37.006309509277344,"lng":127.26857757568359,"zoom":15},{"name":"석정동","depth":3,"lat":37.010524749755859,"lng":127.26192474365234,"zoom":15},{"name":"성남동","depth":3,"lat":37.002262115478516,"lng":127.27108764648437,"zoom":15},{"name":"숭인동","depth":3,"lat":37.008872985839844,"lng":127.27298736572266,"zoom":15},{"name":"신건지동","depth":3,"lat":37.014656066894531,"lng":127.24632263183594,"zoom":15},{"name":"신모산동","depth":3,"lat":37.020923614501953,"lng":127.24592590332031,"zoom":15},{"name":"신소현동","depth":3,"lat":37.020317077636719,"lng":127.25405883789062,"zoom":15},{"name":"신흥동","depth":3,"lat":37.002292633056641,"lng":127.26875305175781,"zoom":15},{"name":"아양동","depth":3,"lat":37.005916595458984,"lng":127.26046752929688,"zoom":15},{"name":"안성1동","depth":3,"lat":37.005680084228516,"lng":127.27424621582031,"zoom":15},{"name":"안성2동","depth":3,"lat":37.000606536865234,"lng":127.27012634277344,"zoom":15},{"name":"안성3동","depth":3,"lat":37.014209747314453,"lng":127.25775909423828,"zoom":15},{"name":"양성면","depth":3,"lat":37.059879302978516,"lng":127.19451141357422,"zoom":15},{"name":"연지동","depth":3,"lat":37.009956359863281,"lng":127.26988983154297,"zoom":15},{"name":"영동","depth":3,"lat":37.005977630615234,"lng":127.27272033691406,"zoom":15},{"name":"옥산동","depth":3,"lat":37.003963470458984,"lng":127.24659729003906,"zoom":15},{"name":"옥천동","depth":3,"lat":37.002540588378906,"lng":127.27320098876953,"zoom":15},{"name":"원곡면","depth":3,"lat":37.03973388671875,"lng":127.12961578369141,"zoom":15},{"name":"인지동","depth":3,"lat":37.00433349609375,"lng":127.26763153076172,"zoom":15},{"name":"일죽면","depth":3,"lat":37.090538024902344,"lng":127.47659301757813,"zoom":15},{"name":"죽산면","depth":3,"lat":37.078323364257813,"lng":127.42267608642578,"zoom":15},{"name":"중리동","depth":3,"lat":36.975212097167969,"lng":127.28221130371094,"zoom":15},{"name":"창전동","depth":3,"lat":37.004066467285156,"lng":127.27084350585937,"zoom":15},{"name":"현수동","depth":3,"lat":36.995189666748047,"lng":127.28531646728516,"zoom":15}]},{"name":"안양시 동안구","depth":2,"lat":37.3925743103027,"lng":126.951354980469,"zoom":14,"items":[{"name":"갈산동","depth":3,"lat":37.376163482666016,"lng":126.96613311767578,"zoom":15},{"name":"관양1동","depth":3,"lat":37.404747009277344,"lng":126.96463775634766,"zoom":15},{"name":"관양2동","depth":3,"lat":37.402217864990234,"lng":126.97099304199219,"zoom":15},{"name":"관양동","depth":3,"lat":37.404747009277344,"lng":126.96463775634766,"zoom":15},{"name":"귀인동","depth":3,"lat":37.385574340820312,"lng":126.96943664550781,"zoom":15},{"name":"달안동","depth":3,"lat":37.396083831787109,"lng":126.95017242431641,"zoom":15},{"name":"범계동","depth":3,"lat":37.3897590637207,"lng":126.95249176025391,"zoom":15},{"name":"부림동","depth":3,"lat":37.398826599121094,"lng":126.95986175537109,"zoom":15},{"name":"부흥동","depth":3,"lat":37.3936653137207,"lng":126.94712829589844,"zoom":15},{"name":"비산1동","depth":3,"lat":37.399871826171875,"lng":126.93335723876953,"zoom":15},{"name":"비산2동","depth":3,"lat":37.397079467773438,"lng":126.94139862060547,"zoom":15},{"name":"비산3동","depth":3,"lat":37.4044075012207,"lng":126.94477081298828,"zoom":15},{"name":"비산동","depth":3,"lat":37.399871826171875,"lng":126.93335723876953,"zoom":15},{"name":"신촌동","depth":3,"lat":37.381935119628906,"lng":126.95642852783203,"zoom":15},{"name":"평안동","depth":3,"lat":37.390399932861328,"lng":126.96424865722656,"zoom":15},{"name":"평촌동","depth":3,"lat":37.394691467285156,"lng":126.97710418701172,"zoom":15},{"name":"호계1동","depth":3,"lat":37.370922088623047,"lng":126.95822906494141,"zoom":15},{"name":"호계2동","depth":3,"lat":37.381175994873047,"lng":126.95262145996094,"zoom":15},{"name":"호계3동","depth":3,"lat":37.3676643371582,"lng":126.95877075195312,"zoom":15},{"name":"호계동","depth":3,"lat":37.375091552734375,"lng":126.95719909667969,"zoom":15}]},{"name":"안양시 만안구","depth":2,"lat":37.3866500854492,"lng":126.932327270508,"zoom":14,"items":[{"name":"박달1동","depth":3,"lat":37.4035758972168,"lng":126.90912628173828,"zoom":15},{"name":"박달2동","depth":3,"lat":37.401676177978516,"lng":126.90168762207031,"zoom":15},{"name":"박달동","depth":3,"lat":37.4035758972168,"lng":126.90912628173828,"zoom":15},{"name":"석수1동","depth":3,"lat":37.419586181640625,"lng":126.91063690185547,"zoom":15},{"name":"석수2동","depth":3,"lat":37.413913726806641,"lng":126.90937805175781,"zoom":15},{"name":"석수3동","depth":3,"lat":37.409160614013672,"lng":126.89517211914062,"zoom":15},{"name":"석수동","depth":3,"lat":37.419586181640625,"lng":126.91063690185547,"zoom":15},{"name":"안양1동","depth":3,"lat":37.399223327636719,"lng":126.92592620849609,"zoom":15},{"name":"안양2동","depth":3,"lat":37.404945373535156,"lng":126.91771697998047,"zoom":15},{"name":"안양3동","depth":3,"lat":37.396034240722656,"lng":126.91468048095703,"zoom":15},{"name":"안양4동","depth":3,"lat":37.396533966064453,"lng":126.91786193847656,"zoom":15},{"name":"안양5동","depth":3,"lat":37.394233703613281,"lng":126.92073822021484,"zoom":15},{"name":"안양6동","depth":3,"lat":37.390041351318359,"lng":126.93058013916016,"zoom":15},{"name":"안양7동","depth":3,"lat":37.392494201660156,"lng":126.93592071533203,"zoom":15},{"name":"안양8동","depth":3,"lat":37.384162902832031,"lng":126.93192291259766,"zoom":15},{"name":"안양9동","depth":3,"lat":37.3914680480957,"lng":126.90840148925781,"zoom":15},{"name":"안양동","depth":3,"lat":37.386127471923828,"lng":126.9156494140625,"zoom":15}]},{"name":"양주시","depth":2,"lat":37.7851905822754,"lng":127.04606628418,"zoom":14,"items":[{"name":"고암동","depth":3,"lat":37.814907073974609,"lng":127.07119750976562,"zoom":15},{"name":"고읍동","depth":3,"lat":37.804832458496094,"lng":127.07540130615234,"zoom":15},{"name":"광사동","depth":3,"lat":37.790130615234375,"lng":127.07299041748047,"zoom":15},{"name":"광적면","depth":3,"lat":37.824687957763672,"lng":126.98374176025391,"zoom":15},{"name":"남면","depth":3,"lat":37.898117065429687,"lng":126.97675323486328,"zoom":15},{"name":"남방동","depth":3,"lat":37.774120330810547,"lng":127.03801727294922,"zoom":15},{"name":"덕계동","depth":3,"lat":37.825202941894531,"lng":127.03581237792969,"zoom":15},{"name":"덕정동","depth":3,"lat":37.846733093261719,"lng":127.06471252441406,"zoom":15},{"name":"마전동","depth":3,"lat":37.7700309753418,"lng":127.05371856689453,"zoom":15},{"name":"만송동","depth":3,"lat":37.785026550292969,"lng":127.09336090087891,"zoom":15},{"name":"백석읍","depth":3,"lat":37.795028686523438,"lng":126.98564147949219,"zoom":15},{"name":"봉양동","depth":3,"lat":37.8611946105957,"lng":127.07549285888672,"zoom":15},{"name":"산북동","depth":3,"lat":37.801128387451172,"lng":127.04138946533203,"zoom":15},{"name":"삼숭동","depth":3,"lat":37.804119110107422,"lng":127.10369873046875,"zoom":15},{"name":"양주1동","depth":3,"lat":37.773258209228516,"lng":127.04380035400391,"zoom":15},{"name":"양주2동","depth":3,"lat":37.796829223632813,"lng":127.08029937744141,"zoom":15},{"name":"어둔동","depth":3,"lat":37.776042938232422,"lng":127.01356506347656,"zoom":15},{"name":"옥정동","depth":3,"lat":37.820011138916016,"lng":127.08827209472656,"zoom":15},{"name":"유양동","depth":3,"lat":37.788238525390625,"lng":127.02970886230469,"zoom":15},{"name":"율정동","depth":3,"lat":37.828620910644531,"lng":127.10718536376953,"zoom":15},{"name":"은현면","depth":3,"lat":37.875007629394531,"lng":127.02454376220703,"zoom":15},{"name":"장흥면","depth":3,"lat":37.717861175537109,"lng":126.94103240966797,"zoom":15},{"name":"회암동","depth":3,"lat":37.852123260498047,"lng":127.10298919677734,"zoom":15},{"name":"회정동","depth":3,"lat":37.834083557128906,"lng":127.05126953125,"zoom":15},{"name":"회천1동","depth":3,"lat":37.844139099121094,"lng":127.06611633300781,"zoom":15},{"name":"회천2동","depth":3,"lat":37.822475433349609,"lng":127.04775238037109,"zoom":15},{"name":"회천3동","depth":3,"lat":37.837783813476563,"lng":127.06888580322266,"zoom":15},{"name":"회천4동","depth":3,"lat":37.832901000976562,"lng":127.09037017822266,"zoom":15}]},{"name":"양평군","depth":2,"lat":37.4917945861816,"lng":127.487609863281,"zoom":14,"items":[{"name":"강상면","depth":3,"lat":37.477214813232422,"lng":127.4854736328125,"zoom":15},{"name":"강하면","depth":3,"lat":37.4949836730957,"lng":127.410400390625,"zoom":15},{"name":"개군면","depth":3,"lat":37.425991058349609,"lng":127.53679656982422,"zoom":15},{"name":"단월면","depth":3,"lat":37.538558959960938,"lng":127.67296600341797,"zoom":15},{"name":"서종면","depth":3,"lat":37.606594085693359,"lng":127.34870147705078,"zoom":15},{"name":"양동면","depth":3,"lat":37.424728393554687,"lng":127.75138854980469,"zoom":15},{"name":"양서면","depth":3,"lat":37.543968200683594,"lng":127.32602691650391,"zoom":15},{"name":"양평읍","depth":3,"lat":37.486454010009766,"lng":127.49330902099609,"zoom":15},{"name":"옥천면","depth":3,"lat":37.518119812011719,"lng":127.45606231689453,"zoom":15},{"name":"용문면","depth":3,"lat":37.486763000488281,"lng":127.59569549560547,"zoom":15},{"name":"지평면","depth":3,"lat":37.474529266357422,"lng":127.63929748535156,"zoom":15},{"name":"청운면","depth":3,"lat":37.5562629699707,"lng":127.71067047119141,"zoom":15}]},{"name":"여주시","depth":2,"lat":37.298248291015625,"lng":127.63721466064453,"zoom":14,"items":[{"name":"가남읍","depth":3,"lat":37.201847076416016,"lng":127.54502868652344,"zoom":15},{"name":"가업동","depth":3,"lat":37.270755767822266,"lng":127.620361328125,"zoom":15},{"name":"강천면","depth":3,"lat":37.272914886474609,"lng":127.71147155761719,"zoom":15},{"name":"교동","depth":3,"lat":37.280311584472656,"lng":127.63205718994141,"zoom":15},{"name":"금사면","depth":3,"lat":37.392665863037109,"lng":127.53328704833984,"zoom":15},{"name":"능서면","depth":3,"lat":37.300102233886719,"lng":127.57352447509766,"zoom":15},{"name":"능현동","depth":3,"lat":37.265617370605469,"lng":127.656494140625,"zoom":15},{"name":"단현동","depth":3,"lat":37.270893096923828,"lng":127.68107604980469,"zoom":15},{"name":"대신면","depth":3,"lat":37.3751335144043,"lng":127.58655548095703,"zoom":15},{"name":"매룡동","depth":3,"lat":37.281612396240234,"lng":127.65782928466797,"zoom":15},{"name":"멱곡동","depth":3,"lat":37.253257751464844,"lng":127.66869354248047,"zoom":15},{"name":"북내면","depth":3,"lat":37.329349517822266,"lng":127.67892456054687,"zoom":15},{"name":"산북면","depth":3,"lat":37.401718139648438,"lng":127.44300842285156,"zoom":15},{"name":"삼교동","depth":3,"lat":37.234394073486328,"lng":127.65672302246094,"zoom":15},{"name":"상거동","depth":3,"lat":37.245891571044922,"lng":127.62519836425781,"zoom":15},{"name":"상동","depth":3,"lat":37.290744781494141,"lng":127.64968872070312,"zoom":15},{"name":"신진동","depth":3,"lat":37.279136657714844,"lng":127.67469024658203,"zoom":15},{"name":"여흥동","depth":3,"lat":37.294979095458984,"lng":127.63984680175781,"zoom":15},{"name":"연라동","depth":3,"lat":37.25933837890625,"lng":127.61069488525391,"zoom":15},{"name":"연양동","depth":3,"lat":37.287387847900391,"lng":127.66694641113281,"zoom":15},{"name":"오금동","depth":3,"lat":37.334281921386719,"lng":127.65008544921875,"zoom":15},{"name":"오학동","depth":3,"lat":37.309719085693359,"lng":127.64439392089844,"zoom":15},{"name":"우만동","depth":3,"lat":37.257064819335938,"lng":127.67763519287109,"zoom":15},{"name":"월송동","depth":3,"lat":37.285785675048828,"lng":127.61219787597656,"zoom":15},{"name":"점동면","depth":3,"lat":37.206089019775391,"lng":127.66256713867187,"zoom":15},{"name":"점봉동","depth":3,"lat":37.256557464599609,"lng":127.64373016357422,"zoom":15},{"name":"중앙동","depth":3,"lat":37.294937133789063,"lng":127.63982391357422,"zoom":15},{"name":"창동","depth":3,"lat":37.2934455871582,"lng":127.63347625732422,"zoom":15},{"name":"천송동","depth":3,"lat":37.303745269775391,"lng":127.66212463378906,"zoom":15},{"name":"하거동","depth":3,"lat":37.226924896240234,"lng":127.63400268554687,"zoom":15},{"name":"하동","depth":3,"lat":37.2999382019043,"lng":127.62631988525391,"zoom":15},{"name":"현암동","depth":3,"lat":37.315567016601563,"lng":127.63423156738281,"zoom":15},{"name":"홍문동","depth":3,"lat":37.287662506103516,"lng":127.63829040527344,"zoom":15},{"name":"흥천면","depth":3,"lat":37.332893371582031,"lng":127.54174041748047,"zoom":15}]},{"name":"연천군","depth":2,"lat":38.096736907959,"lng":127.074760437012,"zoom":14,"items":[{"name":"군남면","depth":3,"lat":38.085117340087891,"lng":127.01885223388672,"zoom":15},{"name":"미산면","depth":3,"lat":38.046245574951172,"lng":126.99527740478516,"zoom":15},{"name":"백학면","depth":3,"lat":38.029800415039063,"lng":126.9169921875,"zoom":15},{"name":"신서면","depth":3,"lat":38.182876586914063,"lng":127.10682678222656,"zoom":15},{"name":"연천읍","depth":3,"lat":38.104827880859375,"lng":127.07609558105469,"zoom":15},{"name":"왕징면","depth":3,"lat":38.059055328369141,"lng":127.01344299316406,"zoom":15},{"name":"장남면","depth":3,"lat":37.981666564941406,"lng":126.884521484375,"zoom":15},{"name":"전곡읍","depth":3,"lat":38.028003692626953,"lng":127.06369781494141,"zoom":15},{"name":"중면","depth":3,"lat":38.135738372802734,"lng":127.01860046386719,"zoom":15},{"name":"청산면","depth":3,"lat":37.982337951660156,"lng":127.06843566894531,"zoom":15}]},{"name":"오산시","depth":2,"lat":37.1498908996582,"lng":127.077461242676,"zoom":14,"items":[{"name":"가수동","depth":3,"lat":37.145606994628906,"lng":127.05834197998047,"zoom":15},{"name":"가장동","depth":3,"lat":37.163566589355469,"lng":127.03533935546875,"zoom":15},{"name":"갈곶동","depth":3,"lat":37.128875732421875,"lng":127.07443237304688,"zoom":15},{"name":"고현동","depth":3,"lat":37.13397216796875,"lng":127.08045959472656,"zoom":15},{"name":"궐동","depth":3,"lat":37.162189483642578,"lng":127.05107879638672,"zoom":15},{"name":"금암동","depth":3,"lat":37.172836303710938,"lng":127.04594421386719,"zoom":15},{"name":"남촌동","depth":3,"lat":37.154579162597656,"lng":127.06341552734375,"zoom":15},{"name":"내삼미동","depth":3,"lat":37.181396484375,"lng":127.06153106689453,"zoom":15},{"name":"누읍동","depth":3,"lat":37.139266967773438,"lng":127.05718994140625,"zoom":15},{"name":"대원동","depth":3,"lat":37.138694763183594,"lng":127.07175445556641,"zoom":15},{"name":"두곡동","depth":3,"lat":37.131912231445313,"lng":127.04208374023437,"zoom":15},{"name":"벌음동","depth":3,"lat":37.139446258544922,"lng":127.03784942626953,"zoom":15},{"name":"부산동","depth":3,"lat":37.154502868652344,"lng":127.09036254882812,"zoom":15},{"name":"서동","depth":3,"lat":37.150482177734375,"lng":127.03718566894531,"zoom":15},{"name":"서랑동","depth":3,"lat":37.171825408935547,"lng":127.01246643066406,"zoom":15},{"name":"세교동","depth":3,"lat":37.1858024597168,"lng":127.0377197265625,"zoom":15},{"name":"세마동","depth":3,"lat":37.188259124755859,"lng":127.04080200195312,"zoom":15},{"name":"수청동","depth":3,"lat":37.16571044921875,"lng":127.06185150146484,"zoom":15},{"name":"신장동","depth":3,"lat":37.160091400146484,"lng":127.06392669677734,"zoom":15},{"name":"양산동","depth":3,"lat":37.193241119384766,"lng":127.03015899658203,"zoom":15},{"name":"오산동","depth":3,"lat":37.153133392333984,"lng":127.07285308837891,"zoom":15},{"name":"외삼미동","depth":3,"lat":37.190567016601563,"lng":127.05382537841797,"zoom":15},{"name":"원동","depth":3,"lat":37.141143798828125,"lng":127.07926177978516,"zoom":15},{"name":"은계동","depth":3,"lat":37.160732269287109,"lng":127.07228851318359,"zoom":15},{"name":"중앙동","depth":3,"lat":37.149238586425781,"lng":127.07057189941406,"zoom":15},{"name":"지곶동","depth":3,"lat":37.178779602050781,"lng":127.02445220947266,"zoom":15},{"name":"청학동","depth":3,"lat":37.151443481445313,"lng":127.05396270751953,"zoom":15},{"name":"청호동","depth":3,"lat":37.129787445068359,"lng":127.08423614501953,"zoom":15},{"name":"초평동","depth":3,"lat":37.139869689941406,"lng":127.04064178466797,"zoom":15},{"name":"탑동","depth":3,"lat":37.135791778564453,"lng":127.04897308349609,"zoom":15}]},{"name":"용인시 기흥구","depth":2,"lat":37.2804489135742,"lng":127.11466217041,"zoom":14,"items":[{"name":"고매동","depth":3,"lat":37.224540710449219,"lng":127.09903717041016,"zoom":15},{"name":"공세동","depth":3,"lat":37.239425659179688,"lng":127.11045837402344,"zoom":15},{"name":"구갈동","depth":3,"lat":37.272232055664062,"lng":127.12754058837891,"zoom":15},{"name":"구성동","depth":3,"lat":37.296855926513672,"lng":127.1190185546875,"zoom":15},{"name":"기흥동","depth":3,"lat":37.242946624755859,"lng":127.10270690917969,"zoom":15},{"name":"농서동","depth":3,"lat":37.225563049316406,"lng":127.08473205566406,"zoom":15},{"name":"동백동","depth":3,"lat":37.285598754882813,"lng":127.16213989257813,"zoom":15},{"name":"마북동","depth":3,"lat":37.304325103759766,"lng":127.12347412109375,"zoom":15},{"name":"보라동","depth":3,"lat":37.2525520324707,"lng":127.11348724365234,"zoom":15},{"name":"보정동","depth":3,"lat":37.31951904296875,"lng":127.11467742919922,"zoom":15},{"name":"상갈동","depth":3,"lat":37.266574859619141,"lng":127.10742950439453,"zoom":15},{"name":"상하동","depth":3,"lat":37.2705192565918,"lng":127.13838195800781,"zoom":15},{"name":"서농동","depth":3,"lat":37.246845245361328,"lng":127.07338714599609,"zoom":15},{"name":"서천동","depth":3,"lat":37.243015289306641,"lng":127.07244110107422,"zoom":15},{"name":"신갈동","depth":3,"lat":37.272418975830078,"lng":127.10713958740234,"zoom":15},{"name":"언남동","depth":3,"lat":37.293964385986328,"lng":127.12896728515625,"zoom":15},{"name":"영덕동","depth":3,"lat":37.277774810791016,"lng":127.07390594482422,"zoom":15},{"name":"중동","depth":3,"lat":37.268291473388672,"lng":127.15872955322266,"zoom":15},{"name":"지곡동","depth":3,"lat":37.237518310546875,"lng":127.14054870605469,"zoom":15},{"name":"청덕동","depth":3,"lat":37.299491882324219,"lng":127.15027618408203,"zoom":15},{"name":"하갈동","depth":3,"lat":37.252658843994141,"lng":127.09268951416016,"zoom":15}]},{"name":"용인시 수지구","depth":2,"lat":37.3221702575684,"lng":127.098045349121,"zoom":14,"items":[{"name":"고기동","depth":3,"lat":37.356815338134766,"lng":127.03656768798828,"zoom":15},{"name":"동천동","depth":3,"lat":37.341888427734375,"lng":127.09882354736328,"zoom":15},{"name":"상현1동","depth":3,"lat":37.3045654296875,"lng":127.08109283447266,"zoom":15},{"name":"상현2동","depth":3,"lat":37.309589385986328,"lng":127.08573150634766,"zoom":15},{"name":"상현동","depth":3,"lat":37.3045654296875,"lng":127.08109283447266,"zoom":15},{"name":"성복동","depth":3,"lat":37.3163948059082,"lng":127.06898498535156,"zoom":15},{"name":"신봉동","depth":3,"lat":37.333438873291016,"lng":127.06063079833984,"zoom":15},{"name":"죽전1동","depth":3,"lat":37.331111907958984,"lng":127.11392974853516,"zoom":15},{"name":"죽전2동","depth":3,"lat":37.325920104980469,"lng":127.10671997070312,"zoom":15},{"name":"죽전동","depth":3,"lat":37.331111907958984,"lng":127.11392974853516,"zoom":15},{"name":"풍덕천1동","depth":3,"lat":37.327983856201172,"lng":127.09494781494141,"zoom":15},{"name":"풍덕천2동","depth":3,"lat":37.319488525390625,"lng":127.08896636962891,"zoom":15},{"name":"풍덕천동","depth":3,"lat":37.327983856201172,"lng":127.09494781494141,"zoom":15}]},{"name":"용인시 처인구","depth":2,"lat":37.2343482971191,"lng":127.201347351074,"zoom":14,"items":[{"name":"고림동","depth":3,"lat":37.247905731201172,"lng":127.22663879394531,"zoom":15},{"name":"김량장동","depth":3,"lat":37.235279083251953,"lng":127.20191192626953,"zoom":15},{"name":"남동","depth":3,"lat":37.220878601074219,"lng":127.20174407958984,"zoom":15},{"name":"남사면","depth":3,"lat":37.115375518798828,"lng":127.15058898925781,"zoom":15},{"name":"동부동","depth":3,"lat":37.232738494873047,"lng":127.21929931640625,"zoom":15},{"name":"마평동","depth":3,"lat":37.230247497558594,"lng":127.23268890380859,"zoom":15},{"name":"모현면","depth":3,"lat":37.3294677734375,"lng":127.24239349365234,"zoom":15},{"name":"백암면","depth":3,"lat":37.163417816162109,"lng":127.37539672851563,"zoom":15},{"name":"삼가동","depth":3,"lat":37.238319396972656,"lng":127.16221618652344,"zoom":15},{"name":"양지면","depth":3,"lat":37.235301971435547,"lng":127.27971649169922,"zoom":15},{"name":"역북동","depth":3,"lat":37.2462043762207,"lng":127.1881103515625,"zoom":15},{"name":"역삼동","depth":3,"lat":37.233936309814453,"lng":127.18729400634766,"zoom":15},{"name":"운학동","depth":3,"lat":37.214138031005859,"lng":127.23552703857422,"zoom":15},{"name":"원삼면","depth":3,"lat":37.166633605957031,"lng":127.31320190429687,"zoom":15},{"name":"유림동","depth":3,"lat":37.252490997314453,"lng":127.21170043945313,"zoom":15},{"name":"유방동","depth":3,"lat":37.257602691650391,"lng":127.20433044433594,"zoom":15},{"name":"이동면","depth":3,"lat":37.141029357910156,"lng":127.19619750976562,"zoom":15},{"name":"중앙동","depth":3,"lat":37.234245300292969,"lng":127.2056884765625,"zoom":15},{"name":"포곡읍","depth":3,"lat":37.277885437011719,"lng":127.23055267333984,"zoom":15},{"name":"해곡동","depth":3,"lat":37.190151214599609,"lng":127.27558898925781,"zoom":15},{"name":"호동","depth":3,"lat":37.182392120361328,"lng":127.26628875732422,"zoom":15}]},{"name":"의왕시","depth":2,"lat":37.3448867797851,"lng":126.968276977539,"zoom":14,"items":[{"name":"고천동","depth":3,"lat":37.347518920898437,"lng":126.97592163085937,"zoom":15},{"name":"내손1동","depth":3,"lat":37.378261566162109,"lng":126.97569274902344,"zoom":15},{"name":"내손2동","depth":3,"lat":37.38763427734375,"lng":126.98149108886719,"zoom":15},{"name":"내손동","depth":3,"lat":37.378261566162109,"lng":126.97569274902344,"zoom":15},{"name":"부곡동","depth":3,"lat":37.318641662597656,"lng":126.95679473876953,"zoom":15},{"name":"삼동","depth":3,"lat":37.323749542236328,"lng":126.95570373535156,"zoom":15},{"name":"오전동","depth":3,"lat":37.353610992431641,"lng":126.97158050537109,"zoom":15},{"name":"왕곡동","depth":3,"lat":37.345809936523438,"lng":126.99739837646484,"zoom":15},